id,name,job_title,home_latitude,home_longitude,country,near_shop
1,Teresita,Social Worker,47.35913660000001,2.8002946,FR,169
2,Sanders,Teacher,46.66789779999999,-1.4087525,FR,162
3,Steward,Software Consultant,44.1675867,2.0308233,FR,85
4,Hiram,Geological Engineer,49.169810600000005,6.1200844000000005,FR,16
5,Rebeca,Data Coordiator,46.3194856,-0.4546217000000001,FR,287
6,Sherry,Information Systems Manager,48.0976547,-1.7819266,FR,101
7,Ody,Tax Accountant,43.494573700000004,5.8978018,FR,234
8,Lucita,Operator,50.398362,1.5608271,FR,217
9,Aurie,Accountant I,47.6329545,7.483902199999999,FR,151
10,Rhianon,Design Engineer,45.1905186,0.7423124,FR,204
11,Collin,Staff Scientist,47.9962116,-4.1020654,FR,77
12,Garfield,Office Assistant II,43.51908579999999,5.4431946,FR,292
13,Sherie,Junior Executive,43.494573700000004,5.8978018,FR,228
14,Derwin,Marketing Assistant,43.0429124,1.9038837,FR,271
15,Garwood,Senior Editor,48.8951749,2.0743633000000004,FR,65
16,Marjie,Clinical Specialist,44.1640152,3.8481099000000003,FR,26
17,Sheppard,Web Designer I,43.5162166,-5.664251999999999,ES,28
18,Constantia,Office Assistant I,47.389214200000005,0.6942885,FR,267
19,Madelin,VP Marketing,48.7057309,2.2186743,FR,74
20,Ynez,Accountant I,0.0,2.8125,FR,280
21,Stewart,Accounting Assistant IV,48.7700185,2.3508225,FR,118
22,Culver,Senior Editor,45.796785799999995,4.8427596,FR,234
23,Bastien,VP Quality Control,48.1392924,-1.9439194,FR,21
24,Rorie,Sales Associate,48.8834605,2.2335234,FR,126
25,Veronike,Environmental Specialist,48.8132669,2.4114142999999997,FR,12
26,Joel,Accountant I,48.8809869,2.2760839,FR,293
27,Rockie,Teacher,49.0426,2.0878259999999997,FR,297
28,Stephanus,Research Assistant III,43.1553222,5.8998183,FR,27
29,Cyndi,GIS Technical Architect,42.9782326,-7.5626411,ES,49
30,Catharine,Human Resources Manager,48.4914852,-4.0442397,FR,255
31,Web,Media Manager III,47.3752386,-0.8453268,FR,95
32,Bebe,Health Coach I,43.494573700000004,5.8978018,FR,181
33,Sheffield,Accounting Assistant I,48.9318625,2.4943891,FR,113
34,Denna,Programmer IV,43.494573700000004,5.8978018,FR,281
35,Cornall,GIS Technical Architect,49.89053679999999,2.3081396,FR,38
36,Vilhelmina,Senior Quality Engineer,48.7878212,2.0441607,FR,92
37,Walliw,Graphic Designer,43.3152889,-1.9514657,ES,283
38,Marcy,Quality Engineer,44.1675867,2.0308233,FR,70
39,Shay,Media Manager III,,,FR,262
40,Brigida,Chemical Engineer,46.8118134,-0.5451553000000001,FR,299
41,Udale,Chief Design Engineer,43.586203999999995,1.6250848999999998,FR,275
42,Amara,Actuary,,,FR,174
43,Dolf,Director of Sales,48.7276331,2.281825,FR,136
44,Jonathon,Engineer III,39.463861,-0.36895079999999997,ES,74
45,Agata,Assistant Media Planner,48.8834042,2.333434,FR,95
46,Drugi,Director of Sales,44.067816799999996,6.985511200000001,FR,239
47,Rubina,Recruiting Manager,43.2916776,-0.3696612,FR,59
48,Hillier,Desktop Support Technician,47.386050700000006,0.7236073000000001,FR,112
49,Rees,Compensation Analyst,43.4462218,5.2254137,FR,56
50,Alley,Accounting Assistant III,48.9086571,2.4532855,FR,175
51,Devland,Research Nurse,48.890054,2.2372792,FR,72
52,Athena,Structural Analysis Engineer,48.8809869,2.2760839,FR,113
53,Karoly,VP Accounting,48.8331738,-1.6029573000000001,FR,213
54,Enid,Legal Assistant,44.287408899999996,1.9973849999999997,FR,137
55,Benetta,Database Administrator III,48.892701,2.233089,FR,257
56,Lynnett,VP Accounting,48.8927579,2.2817978,FR,270
57,Arleta,Software Engineer I,47.594843,1.3155028,FR,156
58,Florentia,Senior Quality Engineer,47.3640936,0.7259705,FR,250
59,Justin,Recruiting Manager,44.7721717,-0.6995220999999999,FR,229
60,Frants,Assistant Manager,45.39771,4.77996,FR,91
61,Evania,Food Chemist,45.137411,3.812874,FR,95
62,Annecorinne,Director of Sales,45.193485700000004,5.7218985,FR,46
63,Alexandro,Recruiting Manager,49.1931313,-0.3907558,FR,284
64,Rick,Programmer I,48.891587,2.2408938,FR,298
65,Corie,Recruiter,48.5597333,7.7459273,FR,50
66,Coleen,Librarian,44.3538674,2.9200826,FR,267
67,Shay,Software Engineer II,43.7441795,2.5119990000000003,FR,24
68,Lucille,Cost Accountant,43.498839700000005,4.978904099999999,FR,182
69,Shel,Environmental Specialist,42.7981285,1.5693758999999998,FR,18
70,Shirlee,Research Nurse,38.994349,-1.8585424,ES,122
71,Jerrine,Paralegal,44.025555,1.378056,FR,62
72,Tina,Accountant IV,43.494573700000004,5.8978018,FR,261
73,Everett,Structural Analysis Engineer,45.697904,0.964671,FR,91
74,Lonee,Senior Cost Accountant,43.97637460000001,4.9052738,FR,32
75,Frasco,Staff Accountant III,49.243003,2.510652,FR,128
76,Payton,Structural Engineer,43.494573700000004,5.8978018,FR,78
77,Darn,Software Engineer III,44.287408899999996,1.9973849999999997,FR,97
78,Dulcea,Automation Specialist I,49.48153,0.10821099999999999,FR,258
79,Daloris,Mechanical Systems Engineer,46.068811,6.568907,FR,74
80,Nora,VP Accounting,48.8693156,2.3501981,FR,94
81,Lori,Chief Design Engineer,48.088508700000006,0.2075745,FR,177
82,Trstram,Assistant Professor,48.794678399999995,2.3067496,FR,170
83,Elysha,Research Assistant I,44.867141499999995,4.9157564,FR,75
84,Donovan,Senior Financial Analyst,45.9018536,6.121072,FR,271
85,Carey,Developer II,43.884893,-0.5046003,FR,7
86,Ian,Information Systems Manager,28.084612100000005,-15.433167300000001,ES,209
87,Gerick,Research Nurse,50.716719,3.1680599999999997,FR,78
88,Yardley,Senior Developer,49.263005799999995,5.9291577,FR,57
89,Fancy,Help Desk Technician,48.5851876,7.7342943,FR,127
90,Nathalia,Teacher,46.9428639,4.299856299999999,FR,118
91,Maggee,Web Designer IV,43.862902000000005,3.3191089999999996,FR,46
92,Obadiah,Senior Financial Analyst,47.7489727,7.350706599999999,FR,135
93,Courtnay,Help Desk Operator,43.0429124,1.9038837,FR,149
94,Josephine,Financial Analyst,47.9962116,-4.1020654,FR,132
95,Tobey,Junior Executive,48.8753655,2.3405004000000003,FR,10
96,Amity,Nurse,43.33628220000001,3.2188961,FR,169
97,Derry,Health Coach IV,47.594843,1.3155028,FR,122
98,Gale,Teacher,45.4381658,4.3868779,FR,150
99,Cindra,Computer Systems Analyst I,46.6322044,-0.5664231,FR,84
100,Faulkner,Sales Representative,43.4598651,-3.8057968,ES,22
101,Mick,Marketing Manager,48.6277459,2.4381665,FR,217
102,Floyd,Marketing Manager,44.346784,5.8855505,FR,85
103,Aldon,Research Assistant I,48.8373554,2.2682398999999998,FR,144
104,Cole,Graphic Designer,45.3207796,4.1293609,FR,67
105,Pauly,Analyst Programmer,48.892701,2.233089,FR,224
106,Dickie,VP Marketing,43.7441795,2.5119990000000003,FR,116
107,Lesli,Staff Accountant III,47.8225694,0.3908219,FR,88
108,Eddie,Human Resources Manager,44.539432399999995,3.5333133,FR,219
109,Cammi,Design Engineer,47.6022755,6.219441799999999,FR,180
110,Dulciana,Engineer II,46.3410256,4.997947900000001,FR,14
111,Eldridge,Operator,41.4904044,2.0776887,ES,279
112,Linc,VP Quality Control,48.9105576,2.3645084,FR,263
113,Rollo,Electrical Engineer,44.346784,5.8855505,FR,163
114,Filmore,Marketing Manager,40.755909499999994,-0.3371889,ES,191
115,Lotti,Chemical Engineer,43.834534999999995,5.0436629,FR,211
116,Brigit,Design Engineer,48.689836,6.17445,FR,229
117,Harold,Pharmacist,48.6066876,2.3023877999999995,FR,197
118,Rayner,Staff Accountant I,36.5292176,-6.2940354,ES,37
119,Yul,Geological Engineer,43.494573700000004,5.8978018,FR,227
120,Marion,Software Consultant,28.1236316,-15.428773800000002,ES,166
121,Oswell,Sales Representative,43.3177929,-1.9814245,ES,9
122,Hurley,Graphic Designer,48.8706152,2.2289339,FR,116
123,Conni,Biostatistician IV,47.389214200000005,0.6942885,FR,234
124,Jakie,Database Administrator II,46.6750305,4.3642884,FR,90
125,Errick,VP Product Management,46.6698573,0.3697581,FR,141
126,Aprilette,Chemical Engineer,43.494573700000004,5.8978018,FR,50
127,Ethelda,Nurse Practicioner,28.00872,-15.398022400000002,ES,10
128,Alick,Media Manager I,48.689836,6.17445,FR,261
129,Shir,Mechanical Systems Engineer,48.3009689,-1.2836594,FR,41
130,Hedvig,Administrative Officer,48.076232700000006,-0.7609009,FR,255
131,Lynnet,General Manager,48.806960100000005,2.3549227000000004,FR,128
132,Misti,VP Sales,47.49116,3.9130199999999995,FR,148
133,Druci,Senior Sales Associate,48.9318625,2.4943891,FR,231
134,Liz,Associate Professor,49.4006213,1.1150619,FR,111
135,Arvy,Assistant Professor,48.5975789,2.4626488999999996,FR,176
136,Filberto,VP Product Management,43.12376079999999,2.317187,FR,20
137,Friederike,Account Representative II,43.804722999999996,4.401981,FR,128
138,Damon,Senior Cost Accountant,42.229169,-8.7026991,ES,34
139,Pavlov,Community Outreach Specialist,43.553302,6.574528999999999,FR,186
140,Ester,Assistant Professor,48.7845598,2.0433063000000002,FR,19
141,Mohandis,Accountant III,49.243003,2.510652,FR,203
142,Kalila,Payment Adjustment Coordinator,42.8591137,-2.6844071,ES,118
143,Lorrie,Dental Hygienist,43.840232,5.037751,FR,102
144,Carlynne,Chemical Engineer,47.9544744,-2.0532343,FR,147
145,Wilton,Project Manager,43.494573700000004,5.8978018,FR,135
146,Andy,VP Sales,,,FR,181
147,Sonnnie,Food Chemist,43.2916776,-0.3696612,FR,218
148,Binni,Teacher,43.067122,0.151424,FR,145
149,Carla,Teacher,47.6022755,6.219441799999999,FR,110
150,Christoph,Editor,45.521519,3.5276642,FR,241
151,Pearline,Assistant Professor,45.396383,4.325896299999999,FR,54
152,Halette,Human Resources Manager,47.3036891,2.6981496,FR,159
153,Oby,Engineer III,47.2550409,-1.5401497,FR,252
154,Leonora,Geological Engineer,48.8132669,2.4114142999999997,FR,55
155,Kissie,Editor,46.66789779999999,-1.4087525,FR,136
156,Whittaker,Dental Hygienist,,,FR,38
157,Elna,Geologist II,48.9475246,2.4888946,FR,253
158,Emelita,Registered Nurse,44.0527811,6.1717148,FR,96
159,Darb,Actuary,46.771347799999994,3.8379578000000003,FR,282
160,Schuyler,Media Manager I,50.3566891,3.5246977,FR,96
161,Elene,Technical Writer,49.0422777,2.03776,FR,14
162,Jania,Internal Auditor,37.4852899,-2.2959788,ES,118
163,Ruprecht,Programmer I,43.531209999999994,1.4029340000000001,FR,208
164,Tibold,Budget/Accounting Analyst III,45.126841,-0.662941,FR,181
165,Calv,Account Executive,43.9235435,2.141706,FR,81
166,Chevy,Staff Scientist,47.7489727,7.350706599999999,FR,212
167,Christian,Recruiting Manager,48.2506791,6.4196206,FR,21
168,Martica,Operator,46.8118134,-0.5451553000000001,FR,43
169,Olenolin,Financial Analyst,43.0429124,1.9038837,FR,42
170,See,Information Systems Manager,47.35913660000001,2.8002946,FR,205
171,Olimpia,Associate Professor,48.8708001,2.166848,FR,220
172,Susi,Web Designer I,46.8179207,0.5465548000000001,FR,47
173,Moria,Community Outreach Specialist,,,FR,189
174,Carce,Programmer Analyst IV,43.51908579999999,5.4431946,FR,111
175,Odo,Assistant Professor,49.89053679999999,2.3081396,FR,206
176,Marjy,Junior Executive,43.4598651,-3.8057968,ES,141
177,Fayth,Physical Therapy Assistant,43.608537299999995,1.4525313,FR,254
178,Jimmy,Professor,48.749354,2.480322,FR,97
179,Eileen,Nurse,37.4212157,-5.925121099999999,ES,184
180,Traci,Software Engineer I,43.12376079999999,2.317187,FR,294
181,Barrie,Paralegal,48.689836,6.17445,FR,53
182,Griffy,Structural Analysis Engineer,43.494573700000004,5.8978018,FR,91
183,Ebonee,Director of Sales,47.3036891,2.6981496,FR,24
184,Abbey,Research Assistant IV,46.5838069,0.3350126,FR,231
185,Antoine,Analyst Programmer,,,FR,94
186,Chandal,VP Accounting,47.8074536,7.176978299999999,FR,236
187,Minta,Director of Sales,48.5597333,7.7459273,FR,141
188,Maribeth,Office Assistant IV,46.3349544,2.789104,FR,209
189,Kirby,Associate Professor,48.7717343,2.5030826,FR,93
190,Wiley,VP Sales,48.616966399999995,2.4062650000000003,FR,187
191,Horatius,Account Coordinator,43.2916776,-0.3696612,FR,145
192,Melina,VP Product Management,,,ES,181
193,Uriel,Systems Administrator III,49.0511571,4.0911917,FR,75
194,Sheba,Graphic Designer,45.3954435,3.828292,FR,16
195,Kenton,Compensation Analyst,43.298735,5.382597799999999,FR,21
196,Elsi,Clinical Specialist,45.7595382,4.831092099999999,FR,178
197,Hetty,Food Chemist,47.5619629,-0.9147447,FR,141
198,Imelda,Nurse Practicioner,50.3566891,3.5246977,FR,198
199,Caressa,Executive Secretary,48.8708001,2.166848,FR,173
200,Maure,Senior Editor,46.948305100000006,1.9894311000000002,FR,258
201,Constantin,Systems Administrator I,43.7441795,2.5119990000000003,FR,8
202,Susana,Sales Representative,49.039076,2.074954,FR,46
203,Lissie,Executive Secretary,43.8324929,4.3662320999999995,FR,295
204,Clarke,Registered Nurse,44.346784,5.8855505,FR,247
205,Henrik,Statistician IV,48.006844,2.7428365,FR,5
206,Nevsa,Environmental Tech,48.076232700000006,-0.7609009,FR,137
207,Letty,Research Nurse,50.2837307,2.7425682,FR,40
208,Schuyler,Nurse Practicioner,44.7721717,-0.6995220999999999,FR,34
209,Durant,Nurse,43.3057431,-1.9802012999999998,ES,162
210,Carlin,Marketing Assistant,45.3639886,5.5949365,FR,28
211,Orel,Librarian,48.266053899999996,0.768419,FR,92
212,Sunny,Registered Nurse,48.9101028,2.234305,FR,80
213,Celestina,Health Coach III,39.55583920000001,2.5941238999999996,ES,143
214,Gil,Biostatistician II,48.2044234,5.942257,FR,235
215,Lynnet,Financial Advisor,43.927753499999994,2.1504611000000002,FR,168
216,Talbert,Analog Circuit Design manager,48.7707356,2.0803618999999998,FR,161
217,Mariette,Executive Secretary,46.1705063,1.8852108,FR,183
218,Joane,Office Assistant III,47.594843,1.3155028,FR,148
219,Giraud,Senior Financial Analyst,49.4660029,1.0736573999999999,FR,138
220,Ariella,Analog Circuit Design manager,43.494573700000004,5.8978018,FR,210
221,Ford,Systems Administrator IV,48.190334899999996,3.2995004999999997,FR,130
222,Alistair,Director of Sales,45.778729299999995,3.0857432,FR,1
223,Arel,Structural Engineer,41.504488200000004,-5.7434763,ES,230
224,Dudley,Software Consultant,44.0527811,6.1717148,FR,184
225,Warde,Pharmacist,48.4514438,-2.0559531000000004,FR,14
226,Alasteir,Engineer I,48.759003,2.323941,FR,193
227,Hamlin,Research Assistant III,48.890054,2.2372792,FR,177
228,Marta,Internal Auditor,43.494573700000004,5.8978018,FR,268
229,Krissy,Pharmacist,43.3156727,-0.42894319999999997,FR,107
230,Amandy,VP Marketing,43.7441795,2.5119990000000003,FR,227
231,Tore,Systems Administrator III,47.821504499999996,7.540986999999999,FR,290
232,Palm,Web Developer II,47.9318074,5.2893597,FR,295
233,Hill,Tax Accountant,47.389214200000005,0.6942885,FR,222
234,Alvan,Human Resources Manager,45.7039688,5.9492762,FR,55
235,Cathrine,Help Desk Operator,50.398362,1.5608271,FR,210
236,Titos,General Manager,43.1162469,1.6196332,FR,66
237,Northrup,Speech Pathologist,40.456373299999996,-3.6952896,ES,110
238,Corinna,Senior Quality Engineer,45.991471000000004,4.718821,FR,70
239,Eleonora,Social Worker,48.5851876,7.7342943,FR,246
240,Angel,Senior Financial Analyst,45.70734,5.534063,FR,14
241,Bengt,Graphic Designer,48.6939078,2.3491182,FR,145
242,Dario,Programmer Analyst III,43.7441795,2.5119990000000003,FR,127
243,Camellia,Help Desk Technician,45.7451347,4.825231099999999,FR,106
244,Crystal,Media Manager IV,48.8282801,2.7011678,FR,260
245,Jozef,Graphic Designer,48.69682,2.567685,FR,86
246,Maison,Financial Advisor,45.788378,3.1331436000000004,FR,86
247,Rouvin,Product Engineer,48.8134287,7.7825969,FR,180
248,Waly,Information Systems Manager,48.78355379999999,2.0439218999999995,FR,46
249,Ardys,Staff Accountant I,42.930417999999996,1.7243511000000002,FR,162
250,Chilton,Web Developer III,49.243003,2.510652,FR,239
251,Spike,Programmer Analyst IV,48.978201500000004,4.3827303,FR,34
252,Der,Nurse,43.1283145,5.9294606,FR,96
253,Shepperd,Registered Nurse,48.9449573,2.1463759,FR,135
254,Marv,Teacher,48.6140715,2.4739044,FR,201
255,Maria,Food Chemist,48.0386685,-2.9231898,FR,287
256,Alexandros,Administrative Assistant IV,48.076232700000006,-0.7609009,FR,123
257,Waly,Electrical Engineer,47.4947984,1.2613018,FR,217
258,Bea,Budget/Accounting Analyst III,45.902859899999996,3.95435,FR,299
259,Giacinta,Associate Professor,48.7865463,2.054647,FR,248
260,Diarmid,Paralegal,48.8865404,2.215722,FR,42
261,Alleen,Paralegal,49.144136200000005,6.1519975,FR,258
262,Correy,Data Coordiator,47.3752386,-0.8453268,FR,181
263,Tobi,Structural Analysis Engineer,48.8708001,2.166848,FR,209
264,Edgar,Help Desk Operator,48.6405537,2.3269318,FR,34
265,Richardo,Product Engineer,48.8693156,2.3501981,FR,8
266,Eustacia,Analyst Programmer,44.5590244,4.7447501,FR,97
267,Nicola,Senior Editor,46.3349544,2.789104,FR,169
268,Crosby,Financial Advisor,49.0261841,1.1518478,FR,49
269,Lizette,Financial Advisor,47.0615944,-0.8816138000000001,FR,232
270,Marrissa,Accountant I,,,FR,26
271,Dietrich,Occupational Therapist,48.1772789,6.400366,FR,280
272,Harbert,Director of Sales,41.670451899999996,-4.7135267999999995,ES,176
273,Giralda,Paralegal,43.6399974,1.4282563,FR,97
274,Bowie,Physical Therapy Assistant,48.7700185,2.3508225,FR,105
275,Derick,Research Nurse,43.494573700000004,5.8978018,FR,101
276,Shanta,Structural Engineer,49.119969899999994,6.1650769,FR,11
277,Marget,Environmental Specialist,48.2044234,5.942257,FR,67
278,Carmen,Research Assistant I,45.697904,0.964671,FR,201
279,Claus,Senior Editor,45.697904,0.964671,FR,159
280,Laina,Editor,48.5372073,7.5002842,FR,131
281,Shepperd,Design Engineer,48.747518,4.700132900000001,FR,179
282,Lewie,Computer Systems Analyst I,49.6488646,1.7314817999999998,FR,28
283,Thornie,VP Accounting,50.3171905,2.801236,FR,90
284,Fayina,Mechanical Systems Engineer,48.7853082,2.072661,FR,41
285,Alphard,Junior Executive,,,FR,228
286,Smitty,Quality Engineer,45.193485700000004,5.7218985,FR,235
287,Erek,Programmer Analyst IV,44.0527811,6.1717148,FR,123
288,Cami,VP Marketing,47.211555499999996,3.8260916,FR,163
289,Woody,Web Developer III,48.1079676,-1.5212701000000002,FR,163
290,Granthem,Assistant Professor,49.3061777,-0.5870032,FR,238
291,Hermon,Quality Engineer,46.6698573,0.3697581,FR,264
292,Piggy,Payment Adjustment Coordinator,40.456373299999996,-3.6952896,ES,10
293,Rivy,Nuclear Power Engineer,47.407461,-1.1875200000000001,FR,123
294,Bruis,Environmental Tech,48.859021899999995,2.2228583,FR,17
295,Ardra,Financial Analyst,45.7608815,4.26286,FR,144
296,Damaris,Programmer III,48.7212066,2.1222327,FR,283
297,Max,Financial Analyst,47.6022755,6.219441799999999,FR,224
298,Gunter,Senior Cost Accountant,49.4382375,1.0598119,FR,286
299,Tomi,Media Manager IV,45.7164219,4.8750727,FR,190
300,Zola,Quality Control Specialist,48.9066299,2.2456603,FR,111
301,Arv,Senior Cost Accountant,46.1839042,-0.4738335,FR,198
302,Cesar,Senior Sales Associate,47.3752386,-0.8453268,FR,165
303,Brittan,Analog Circuit Design manager,48.8706152,2.2289339,FR,54
304,Joelie,Chief Design Engineer,44.1372925,4.810107,FR,274
305,Roxanne,Information Systems Manager,49.2066705,2.0391896000000003,FR,164
306,Gusti,Graphic Designer,44.0264621,5.085247900000001,FR,237
307,Gay,Physical Therapy Assistant,48.627474,2.5921846,FR,76
308,Pavel,Recruiter,43.494573700000004,5.8978018,FR,32
309,Kennan,Chief Design Engineer,48.8171378,2.4196694,FR,218
310,Gauthier,Database Administrator IV,43.33628220000001,3.2188961,FR,171
311,Duncan,Clinical Specialist,48.695223,2.1901669999999998,FR,190
312,Maurise,Editor,47.407461,-1.1875200000000001,FR,24
313,Kirstyn,Editor,48.7845598,2.0433063000000002,FR,186
314,Esther,General Manager,44.303453999999995,4.5815725,FR,30
315,Ilyse,Biostatistician II,48.8865404,2.215722,FR,65
316,Katharine,Cost Accountant,47.6329545,7.483902199999999,FR,211
317,Marne,Statistician III,48.695223,2.1901669999999998,FR,202
318,Frances,Information Systems Manager,46.66789779999999,-1.4087525,FR,48
319,Catriona,Payment Adjustment Coordinator,48.812920899999995,2.2385405,FR,155
320,Elissa,Internal Auditor,46.67047120000001,-1.4244076,FR,239
321,Agace,Database Administrator IV,43.525166600000006,-5.6379087,ES,90
322,Templeton,Technical Writer,43.523433700000005,5.422976,FR,241
323,Dane,Sales Associate,46.5217941,6.0221735,FR,40
324,Erv,Physical Therapy Assistant,46.3194856,-0.4546217000000001,FR,169
325,Kimbra,Financial Advisor,39.9658255,-0.041987699999999996,ES,31
326,Calida,Operator,48.006844,2.7428365,FR,53
327,Nikaniki,Compensation Analyst,47.2550409,-1.5401497,FR,141
328,Quincey,Graphic Designer,45.70734,5.534063,FR,37
329,Odelle,Computer Systems Analyst III,43.4903429,5.3378155,FR,57
330,Rahel,Environmental Specialist,45.1800316,0.7237613,FR,258
331,Catriona,Budget/Accounting Analyst III,47.9122021,7.286872,FR,114
332,Derek,Statistician I,47.6519866,-2.0882566000000002,FR,79
333,Nadean,Engineer I,47.6252225,0.277316,FR,16
334,Ashla,Environmental Tech,47.7489727,7.350706599999999,FR,267
335,Guntar,Human Resources Manager,49.8683919,1.1433823,FR,284
336,Bernete,Administrative Officer,47.9962116,-4.1020654,FR,287
337,Conrad,Senior Sales Associate,43.7441795,2.5119990000000003,FR,120
338,Ange,GIS Technical Architect,48.250574,-1.5029858,FR,20
339,Bo,Senior Developer,43.862902000000005,3.3191089999999996,FR,139
340,Dyann,Statistician I,48.5308416,1.4534246000000002,FR,99
341,Toddie,Food Chemist,47.2550409,-1.5401497,FR,7
342,Vale,Tax Accountant,36.5052612,-6.2761016,ES,189
343,Zedekiah,Business Systems Development Analyst,44.1946802,4.0430608,FR,15
344,Kasey,Human Resources Assistant I,,,FR,122
345,Husein,Developer I,43.494573700000004,5.8978018,FR,46
346,Gray,Help Desk Operator,50.274891499999995,3.9727365,FR,9
347,Melodee,Pharmacist,43.2916776,-0.3696612,FR,233
348,Jacynth,Graphic Designer,47.8225694,0.3908219,FR,237
349,Nevil,Staff Accountant IV,49.0261841,1.1518478,FR,194
350,Yorke,Senior Financial Analyst,45.850714,4.7852819,FR,287
351,Deana,Analog Circuit Design manager,45.778729299999995,3.0857432,FR,287
352,Casandra,Technical Writer,49.0371335,3.979371,FR,1
353,Caddric,General Manager,47.35913660000001,2.8002946,FR,34
354,Nikolos,Paralegal,47.9318074,5.2893597,FR,12
355,Lyon,VP Quality Control,44.2171148,0.6352163000000001,FR,111
356,Bjorn,Safety Technician I,43.35315429999999,-1.6300821,FR,279
357,Pasquale,Assistant Manager,45.193485700000004,5.7218985,FR,261
358,Tab,Systems Administrator III,48.0724737,7.3469006,FR,3
359,Hansiain,Health Coach II,47.484145,6.923811,FR,264
360,Laura,Associate Professor,48.2044234,5.942257,FR,196
361,Jo ann,Budget/Accounting Analyst I,36.8414494,-2.4567058999999998,ES,57
362,Starlene,Help Desk Technician,48.0482483,-1.6329288,FR,180
363,Farand,Chemical Engineer,48.695223,2.1901669999999998,FR,189
364,Toby,Staff Scientist,47.2550409,-1.5401497,FR,36
365,Khalil,Environmental Specialist,45.7790993,4.9307738,FR,198
366,Kacey,Human Resources Manager,47.273289,-2.204647,FR,142
367,Star,Quality Control Specialist,50.702223499999995,3.1685214,FR,124
368,Bo,Human Resources Manager,42.6962642,2.8797148999999997,FR,64
369,Cody,Graphic Designer,45.297760499999995,2.5135985,FR,244
370,Nichole,Operator,46.186211,5.916694000000001,FR,116
371,Briggs,Product Engineer,43.7441795,2.5119990000000003,FR,48
372,Vasili,Automation Specialist I,45.590443,5.8930389000000005,FR,93
373,Reinhold,Human Resources Assistant III,45.6258385,0.06298909999999999,FR,14
374,Aretha,Quality Engineer,40.274828899999996,-3.7968574,ES,194
375,Brose,Mechanical Systems Engineer,47.215415899999996,5.9471867,FR,106
376,Wakefield,Financial Analyst,43.6953508,7.2559678,FR,266
377,Aristotle,Environmental Tech,48.759003,2.323941,FR,104
378,Lorelei,Staff Scientist,49.403331,2.8134702999999996,FR,78
379,Chane,Tax Accountant,48.7212066,2.1222327,FR,218
380,Lorilyn,Accounting Assistant III,49.6488646,1.7314817999999998,FR,32
381,Kleon,Project Manager,45.85029,3.53936,FR,75
382,Lovell,Professor,42.830293299999994,-1.6299337999999999,ES,278
383,Clark,Senior Editor,48.64433579999999,7.721216900000001,FR,270
384,Kristen,Registered Nurse,48.8834605,2.2335234,FR,217
385,Rosette,Budget/Accounting Analyst II,40.378739,-3.7358924,ES,69
386,Rhoda,Social Worker,45.1721845,5.7078052,FR,203
387,Gordy,Chemical Engineer,43.3293419,5.3835222,FR,240
388,Karalynn,Business Systems Development Analyst,48.8357169,2.2754517000000005,FR,29
389,Warren,Mechanical Systems Engineer,48.3006708,4.0710348,FR,92
390,Mandie,Operator,45.1800316,0.7237613,FR,163
391,Howard,Recruiting Manager,50.4217341,2.8830762,FR,168
392,Ivett,Safety Technician I,43.368364,-1.7705346000000002,FR,210
393,Tonie,Safety Technician III,40.3319506,-3.7686545,ES,227
394,Ali,Web Developer III,44.1675867,2.0308233,FR,60
395,Kinny,Nuclear Power Engineer,48.958607,1.845782,FR,89
396,Allyson,Dental Hygienist,42.5944931,-5.6195112,ES,234
397,Eartha,Marketing Assistant,45.199034999999995,5.1108709999999995,FR,291
398,Avram,Developer II,48.5597333,7.7459273,FR,18
399,Romona,Financial Analyst,46.817914,-0.626516,FR,153
400,Thomasina,Account Representative IV,45.543655799999996,3.2448507999999996,FR,33
401,Vicki,VP Accounting,45.632343,5.112589,FR,228
402,Kessiah,Operator,47.2174874,-1.5419505,FR,95
403,Adolph,Health Coach II,44.1675867,2.0308233,FR,108
404,Emmi,VP Accounting,48.9236625,2.3882228,FR,212
405,Caesar,Sales Associate,43.7441795,2.5119990000000003,FR,258
406,Starlin,Actuary,43.6953508,7.2559678,FR,193
407,Dusty,VP Accounting,43.6017884,1.4040802,FR,261
408,Kassie,Health Coach IV,49.4104,1.032621,FR,131
409,Ignatius,Pharmacist,48.6366985,2.7912279,FR,257
410,Daffi,VP Product Management,43.5963366,5.4044267999999995,FR,62
411,Angelle,Junior Executive,49.3305085,6.0730865,FR,95
412,Jess,Associate Professor,48.8809869,2.2760839,FR,60
413,Briny,Software Test Engineer I,45.143337200000005,1.4739649,FR,171
414,Tanhya,Geological Engineer,49.0194225,2.4613377,FR,199
415,Vikky,Director of Sales,49.4006213,1.1150619,FR,44
416,Kati,Budget/Accounting Analyst III,48.69682,2.567685,FR,153
417,Lyn,Dental Hygienist,43.2916776,-0.3696612,FR,150
418,Tommie,Mechanical Systems Engineer,44.926348600000004,2.4396467,FR,101
419,Andras,Analog Circuit Design manager,43.834534999999995,5.0436629,FR,228
420,Lyle,Chemical Engineer,40.9380536,0.3183792,ES,29
421,Ronica,Technical Writer,48.846652299999995,2.2582125,FR,19
422,Tory,Librarian,48.819324,2.394771,FR,296
423,Yves,Internal Auditor,48.978201500000004,4.3827303,FR,70
424,Kamillah,Pharmacist,49.5706463,3.6245097,FR,204
425,Colene,Sales Associate,44.539432399999995,3.5333133,FR,253
426,Blayne,Staff Accountant I,47.5745404,-2.3578005,FR,224
427,Nicolis,Product Engineer,42.8970535,-8.541889900000001,ES,251
428,Wendie,Programmer Analyst I,43.494573700000004,5.8978018,FR,271
429,Magdaia,Data Coordiator,45.697904,0.964671,FR,258
430,Marcus,GIS Technical Architect,43.66004,7.214992999999999,FR,48
431,Lauraine,VP Accounting,43.0429124,1.9038837,FR,46
432,Milena,Payment Adjustment Coordinator,,,FR,140
433,Chlo,Research Assistant IV,47.3752386,-0.8453268,FR,274
434,Conant,Quality Control Specialist,47.2215999,5.967596299999999,FR,124
435,Tamarra,Analog Circuit Design manager,43.0429124,1.9038837,FR,76
436,Prent,Marketing Assistant,48.846652299999995,2.2582125,FR,234
437,Aldric,VP Quality Control,43.0429124,1.9038837,FR,190
438,Mylo,Chemical Engineer,43.2916776,-0.3696612,FR,273
439,Evyn,Assistant Media Planner,48.752837299999996,2.5304644,FR,70
440,Leoline,Speech Pathologist,43.59585429999999,5.1190026,FR,163
441,Dorey,Health Coach III,49.899016100000004,3.3651417,FR,191
442,Arlyne,Sales Representative,42.491420399999996,-2.5222689999999997,ES,65
443,Dee,VP Accounting,43.4968733,-1.4703339,FR,212
444,Fionnula,Editor,28.084612100000005,-15.433167300000001,ES,14
445,Maryjane,Community Outreach Specialist,43.4717283,-3.7866915,ES,83
446,Parsifal,Environmental Specialist,47.5745404,-2.3578005,FR,169
447,Rahel,Food Chemist,43.494573700000004,5.8978018,FR,76
448,Dacy,Pharmacist,43.788349600000004,4.9548261,FR,32
449,Ari,Technical Writer,47.2550409,-1.5401497,FR,136
450,Dulce,Internal Auditor,45.297760499999995,2.5135985,FR,254
451,Emmett,Assistant Manager,46.5993244,-1.1457859,FR,231
452,Aland,Payment Adjustment Coordinator,39.873363,-4.0414005,ES,284
453,Mala,Senior Editor,43.7441795,2.5119990000000003,FR,159
454,Nanny,Safety Technician II,48.908975299999994,2.3011787,FR,267
455,Penelope,Legal Assistant,48.830394,2.2372822999999995,FR,162
456,Mead,GIS Technical Architect,49.0301146,2.2509675,FR,107
457,Grantley,Human Resources Assistant IV,48.7525724,2.3881322999999997,FR,155
458,Cristabel,Staff Accountant II,48.372892900000004,-4.212758999999999,FR,282
459,Cody,Developer II,44.386415,-0.31817399999999996,FR,169
460,Egon,Assistant Media Planner,47.821504499999996,7.540986999999999,FR,253
461,Waiter,Senior Developer,44.1675867,2.0308233,FR,90
462,Hannah,Project Manager,46.66789779999999,-1.4087525,FR,68
463,Cristie,Mechanical Systems Engineer,46.322577,-0.4654102,FR,63
464,Bryant,Sales Associate,44.8055893,-0.630617,FR,272
465,Abie,Analog Circuit Design manager,43.616783700000006,7.0125073,FR,108
466,Adena,Office Assistant III,47.17532,-1.6901491999999998,FR,180
467,Noak,Occupational Therapist,46.6328109,-1.8117860000000001,FR,211
468,Vaughan,Editor,50.667396000000004,3.0751792,FR,271
469,Sancho,Research Associate,45.396383,4.325896299999999,FR,149
470,Ursa,Professor,43.5963366,5.4044267999999995,FR,76
471,Shelagh,Professor,48.1504081,-1.6807957999999998,FR,147
472,Sigismondo,Account Representative II,43.494573700000004,5.8978018,FR,75
473,Piper,Community Outreach Specialist,41.4904044,2.0776887,ES,227
474,Lucas,Environmental Tech,39.873363,-4.0414005,ES,165
475,Leslie,Programmer I,45.193485700000004,5.7218985,FR,263
476,Samaria,VP Accounting,48.2216277,6.4359117999999995,FR,162
477,Tatum,Staff Scientist,49.336000000000006,4.0935629,FR,130
478,Carlynne,Tax Accountant,48.9648921,2.2558072,FR,223
479,Neil,Programmer Analyst IV,49.0301146,2.2509675,FR,1
480,Roseanna,Assistant Media Planner,44.6603148,-1.1648341,FR,210
481,Andras,Research Assistant IV,41.4378689,2.196618,ES,222
482,Adham,Senior Developer,40.500471000000005,-3.6673942000000004,ES,206
483,Pasquale,Structural Analysis Engineer,46.2983568,-0.8937702,FR,42
484,Jess,Automation Specialist II,44.346784,5.8855505,FR,197
485,Waldo,Budget/Accounting Analyst I,49.403331,2.8134702999999996,FR,1
486,Griffy,Financial Analyst,47.386050700000006,0.7236073000000001,FR,61
487,Pepe,Developer II,43.6953508,7.2559678,FR,168
488,Timoteo,Actuary,43.704612,7.261933,FR,222
489,Conney,Executive Secretary,48.5111249,-2.7674407000000003,FR,227
490,Lin,Senior Developer,46.715261299999995,-1.4517985,FR,54
491,Juliana,Analog Circuit Design manager,49.504887200000006,5.694475700000001,FR,9
492,Fransisco,Food Chemist,48.8579687,2.5764306,FR,105
493,Fredericka,Compensation Analyst,45.2384571,-0.8106708,FR,289
494,Jules,Food Chemist,43.498839700000005,4.978904099999999,FR,12
495,Charles,Operator,44.1675867,2.0308233,FR,113
496,Madlin,Editor,48.6360664,-2.0280739,FR,226
497,Shaina,Statistician IV,48.689836,6.17445,FR,198
498,Josi,Senior Sales Associate,45.130018,3.562575,FR,138
499,Tedd,Assistant Media Planner,48.5851876,7.7342943,FR,114
500,Northrup,Staff Scientist,46.299350399999994,4.8265785999999995,FR,200
501,Ulysses,Human Resources Assistant IV,50.6793242,3.2510427,FR,170
502,Kory,Occupational Therapist,49.116169,6.180799700000001,FR,299
503,Renard,Cost Accountant,42.830293299999994,-1.6299337999999999,ES,139
504,Ade,Recruiting Manager,47.2623398,-0.1393138,FR,287
505,Marshall,VP Accounting,49.2221045,-0.44401540000000006,FR,255
506,Jermayne,Quality Engineer,44.8055893,-0.630617,FR,39
507,Theresita,Nuclear Power Engineer,46.647310499999996,0.813275,FR,238
508,Francyne,Design Engineer,49.144136200000005,6.1519975,FR,15
509,Mattie,Office Assistant II,45.742007,3.199309,FR,146
510,Bentley,Developer III,46.647310499999996,0.813275,FR,280
511,Hannah,Analyst Programmer,44.1946802,4.0430608,FR,207
512,Priscella,Graphic Designer,47.3752386,-0.8453268,FR,123
513,Stefano,Research Assistant I,44.346784,5.8855505,FR,127
514,Bethina,Associate Professor,50.4734865,2.9394741,FR,161
515,Grange,Computer Systems Analyst II,48.8120404,2.2718631,FR,261
516,Tobey,Software Test Engineer I,48.8693156,2.3501981,FR,288
517,Guenevere,Accounting Assistant I,47.821504499999996,7.540986999999999,FR,96
518,Fredericka,Senior Cost Accountant,42.6962642,2.8797148999999997,FR,64
519,Bo,Analyst Programmer,45.297760499999995,2.5135985,FR,165
520,Becky,Human Resources Manager,49.233768100000006,2.8874923,FR,151
521,Bartlet,Help Desk Technician,48.830394,2.2372822999999995,FR,2
522,Madelene,Senior Financial Analyst,48.892701,2.233089,FR,214
523,Angel,Help Desk Operator,45.644535,5.868937,FR,141
524,Kellen,Product Engineer,46.715261299999995,-1.4517985,FR,144
525,Vevay,Project Manager,50.5429237,3.0864689999999997,FR,252
526,Godiva,Analyst Programmer,49.18455170000001,-0.3553901,FR,62
527,Agnola,Automation Specialist II,49.4382375,1.0598119,FR,106
528,Karlotte,Nuclear Power Engineer,43.1283145,5.9294606,FR,90
529,Pamelina,Marketing Assistant,,,FR,121
530,Finn,Pharmacist,49.476996,0.1639479,FR,139
531,Humfrid,VP Sales,47.7489727,7.350706599999999,FR,64
532,Corella,Project Manager,48.9802395,2.612562,FR,14
533,Jacky,Internal Auditor,47.4861398,-1.7442022000000001,FR,123
534,Blondy,Dental Hygienist,48.9378251,2.1570562,FR,17
535,Barnabe,Electrical Engineer,47.35913660000001,2.8002946,FR,73
536,Tedmund,Quality Control Specialist,48.294118,4.0675057,FR,179
537,Karyl,Speech Pathologist,45.8359543,5.0634248,FR,144
538,Rebbecca,Food Chemist,45.0478491,5.0682113,FR,197
539,Calypso,Information Systems Manager,49.119969899999994,6.1650769,FR,115
540,Torrin,Staff Scientist,48.051502899999996,6.535628,FR,204
541,Maxy,Mechanical Systems Engineer,44.2136985,3.9996504999999996,FR,66
542,Kynthia,Software Consultant,48.792001,2.39851,FR,89
543,Kristi,Operator,49.6355347,-1.6272461999999999,FR,66
544,Arline,Human Resources Assistant III,47.6519866,-2.0882566000000002,FR,277
545,Emory,Human Resources Manager,46.8330256,-0.7845859000000001,FR,29
546,Dorena,Assistant Manager,49.270604799999994,-1.6509128,FR,29
547,Maribel,Research Nurse,39.609109000000004,2.6362975,ES,239
548,Sergent,Media Manager I,47.99561729999999,0.19244589999999998,FR,138
549,Enid,Assistant Manager,47.666899,-3.0222729999999998,FR,13
550,Gratia,Software Engineer III,48.039542499999996,-0.705495,FR,140
551,Sheilah,Engineer III,48.911035,2.16555,FR,3
552,Delmore,Social Worker,47.8417718,-0.3419882,FR,278
553,Rabbi,Financial Analyst,43.1283145,5.9294606,FR,110
554,Michel,Food Chemist,47.7526314,-2.285174,FR,99
555,Adan,Food Chemist,43.4598651,-3.8057968,ES,86
556,Marijn,Executive Secretary,43.6943099,2.0376775,FR,3
557,Darrel,Analog Circuit Design manager,47.2550409,-1.5401497,FR,173
558,Hercules,Web Designer I,48.861050399999996,2.3237083999999997,FR,89
559,Kimmi,Automation Specialist II,,,FR,240
560,Romonda,Technical Writer,49.169810600000005,6.1200844000000005,FR,93
561,Cleo,Accounting Assistant I,47.4441206,-0.5572458,FR,1
562,Vania,Cost Accountant,45.889267100000005,0.3046171,FR,81
563,Aurelia,Marketing Manager,48.9098794,2.2829955,FR,241
564,Garnette,Senior Editor,48.8809869,2.2760839,FR,200
565,Temp,Sales Associate,47.35913660000001,2.8002946,FR,100
566,Andra,Chemical Engineer,44.7721717,-0.6995220999999999,FR,129
567,Ayn,Assistant Manager,48.7980515,2.4882911,FR,240
568,Percival,Administrative Officer,49.4382375,1.0598119,FR,164
569,Artus,Chief Design Engineer,48.1164447,-1.7128603,FR,74
570,Rudolf,Desktop Support Technician,45.9120061,6.1549499,FR,63
571,Currey,Computer Systems Analyst I,47.3752386,-0.8453268,FR,113
572,Kort,Budget/Accounting Analyst IV,48.73812589999999,2.3536083,FR,267
573,Chas,Quality Engineer,48.266053899999996,0.768419,FR,25
574,Ashely,Human Resources Assistant I,47.211555499999996,3.8260916,FR,1
575,Fons,Help Desk Technician,43.553302,6.574528999999999,FR,82
576,Jewelle,Registered Nurse,47.35913660000001,2.8002946,FR,67
577,Pier,Data Coordiator,48.8693156,2.3501981,FR,118
578,Annalise,Quality Control Specialist,47.895835,1.8538860000000001,FR,227
579,Abelard,Senior Cost Accountant,48.1552902,-1.7123278000000002,FR,272
580,Cristiano,Dental Hygienist,,,FR,158
581,Lynna,Accounting Assistant III,47.2550409,-1.5401497,FR,26
582,Steward,Environmental Tech,47.2550409,-1.5401497,FR,9
583,Dell,Account Coordinator,48.695223,2.1901669999999998,FR,209
584,Aeriel,Programmer Analyst II,48.076232700000006,-0.7609009,FR,183
585,Laurene,Executive Secretary,43.0429124,1.9038837,FR,234
586,Rochette,Librarian,39.463861,-0.36895079999999997,ES,34
587,Aggie,Internal Auditor,45.1749035,5.3067172,FR,102
588,Suzy,Speech Pathologist,48.689836,6.17445,FR,10
589,Merle,Automation Specialist III,43.81771679999999,4.343135,FR,43
590,Izaak,Environmental Tech,47.666307,-2.7887334999999998,FR,138
591,Ertha,Paralegal,48.5851876,7.7342943,FR,271
592,Sofia,Paralegal,49.275222899999996,1.207968,FR,72
593,Adolf,Automation Specialist III,46.2983568,-0.8937702,FR,157
594,Bethany,Web Designer II,44.346784,5.8855505,FR,154
595,Anselma,Teacher,43.2916776,-0.3696612,FR,113
596,Fredericka,Design Engineer,48.8693156,2.3501981,FR,1
597,Jory,Systems Administrator IV,46.280212,-0.46017250000000004,FR,273
598,Berta,Legal Assistant,45.90332670000001,4.9346239999999995,FR,38
599,Farica,Professor,49.1931313,-0.3907558,FR,118
600,Ky,Research Nurse,46.4830794,4.6072477,FR,297
601,Raphaela,Food Chemist,48.759003,2.323941,FR,78
602,Katuscha,Marketing Assistant,43.494573700000004,5.8978018,FR,107
603,Tani,Senior Cost Accountant,43.494573700000004,5.8978018,FR,279
604,Inge,General Manager,46.2501181,5.1140864,FR,64
605,Kellby,Social Worker,43.494573700000004,5.8978018,FR,4
606,Gino,Media Manager III,48.8708001,2.166848,FR,139
607,Niko,Associate Professor,47.821504499999996,7.540986999999999,FR,255
608,Hephzibah,Structural Engineer,47.3752386,-0.8453268,FR,81
609,Timi,Desktop Support Technician,43.498839700000005,4.978904099999999,FR,12
610,Chris,Database Administrator II,49.03448529999999,2.2178782999999997,FR,7
611,Maynard,Software Consultant,45.4726625,4.3812793,FR,300
612,Zebedee,Editor,47.341161799999995,0.723116,FR,26
613,Seward,Data Coordiator,44.0643415,1.1011089,FR,149
614,Trent,Senior Editor,28.084612100000005,-15.433167300000001,ES,177
615,Prentiss,Senior Sales Associate,43.494573700000004,5.8978018,FR,219
616,Carissa,Geologist I,48.5851876,7.7342943,FR,186
617,Dorthea,Dental Hygienist,45.90332670000001,4.9346239999999995,FR,11
618,Rafaello,Research Associate,43.8324929,4.3662320999999995,FR,231
619,Cletis,Administrative Assistant IV,48.250574,-1.5029858,FR,132
620,Jacquie,Geological Engineer,48.732568,2.2889821,FR,34
621,Arel,Professor,49.034461,2.3496109,FR,239
622,Leora,Software Consultant,49.76830379999999,4.7189252,FR,9
623,Flss,Community Outreach Specialist,43.963916999999995,4.796809,FR,185
624,Xerxes,Nuclear Power Engineer,45.850714,4.7852819,FR,154
625,Palmer,Administrative Officer,43.523433700000005,5.422976,FR,10
626,Etienne,Health Coach IV,45.1238884,2.9802744,FR,11
627,Eustacia,Payment Adjustment Coordinator,43.0429124,1.9038837,FR,253
628,Antoni,Physical Therapy Assistant,48.9270449,2.3265854,FR,86
629,Riobard,Programmer I,48.315665100000004,0.839002,FR,65
630,Caitrin,Financial Analyst,44.208171,0.620903,FR,180
631,Elsinore,Senior Quality Engineer,48.732568,2.2889821,FR,98
632,Zeb,Marketing Assistant,48.8708001,2.166848,FR,39
633,Hephzibah,General Manager,44.9280296,4.8932937999999995,FR,258
634,Shirleen,Software Test Engineer III,49.1931313,-0.3907558,FR,107
635,Roselia,Business Systems Development Analyst,37.4852899,-2.2959788,ES,102
636,Kevyn,Database Administrator I,49.039076,2.074954,FR,270
637,Sabine,Assistant Media Planner,48.804517,-0.7467014,FR,140
638,Jaquenette,Operator,48.890054,2.2372792,FR,283
639,Brande,Payment Adjustment Coordinator,48.403405,7.4567820000000005,FR,106
640,Harrie,Food Chemist,50.5213838,2.6404238999999996,FR,238
641,Alameda,General Manager,48.99908129999999,1.6899473000000003,FR,299
642,Scarface,Senior Financial Analyst,42.6962642,2.8797148999999997,FR,71
643,Linus,Pharmacist,36.8414494,-2.4567058999999998,ES,243
644,Celie,Speech Pathologist,44.9532555,2.8218035,FR,237
645,Bartlet,Clinical Specialist,45.1905186,0.7423124,FR,41
646,Zollie,VP Quality Control,47.666307,-2.7887334999999998,FR,239
647,Stormy,GIS Technical Architect,45.6258385,0.06298909999999999,FR,124
648,Kassi,Account Coordinator,47.9909521,0.19717720000000002,FR,262
649,Suzette,Clinical Specialist,48.60114779999999,-1.9817088999999999,FR,276
650,Bennett,Marketing Manager,,,FR,236
651,Jilli,Safety Technician IV,48.846652299999995,2.2582125,FR,124
652,Kent,Administrative Officer,48.8693156,2.3501981,FR,181
653,Eartha,Administrative Officer,48.7212066,2.1222327,FR,186
654,Quint,Sales Representative,44.1675867,2.0308233,FR,247
655,Fowler,Human Resources Assistant IV,46.5993244,-1.1457859,FR,44
656,Faber,Senior Financial Analyst,48.9003986,2.2166408,FR,86
657,Roy,Cost Accountant,43.616783700000006,7.0125073,FR,42
658,Camella,Desktop Support Technician,43.289461700000004,5.3563232,FR,180
659,Vanna,Dental Hygienist,49.039076,2.074954,FR,232
660,Corabel,Nurse Practicioner,48.7997482,2.4699259,FR,204
661,Fawn,Electrical Engineer,47.35913660000001,2.8002946,FR,185
662,Felisha,Project Manager,49.403331,2.8134702999999996,FR,196
663,Innis,Graphic Designer,45.311057,5.5463235,FR,262
664,Bartlett,Biostatistician III,44.264289500000004,5.940651,FR,180
665,Cleavland,Safety Technician IV,43.952498999999996,4.804022,FR,164
666,Anissa,Human Resources Assistant I,42.45765479999999,-2.4407498,ES,44
667,Deeyn,Sales Representative,49.03448529999999,2.2178782999999997,FR,137
668,Afton,Statistician IV,28.132879600000003,-15.439307399999999,ES,206
669,Diann,VP Product Management,43.66004,7.214992999999999,FR,249
670,Burnaby,Design Engineer,46.80876370000001,1.6937962,FR,130
671,Derward,Information Systems Manager,36.5052612,-6.2761016,ES,12
672,Tiphany,Statistician IV,47.3752386,-0.8453268,FR,78
673,Ed,Electrical Engineer,45.697904,0.964671,FR,139
674,Ranique,Human Resources Manager,48.7855359,2.0425663,FR,91
675,Lilian,Account Executive,45.311057,5.5463235,FR,91
676,Harley,Software Engineer I,43.6943099,2.0376775,FR,6
677,Kessia,Food Chemist,45.297760499999995,2.5135985,FR,292
678,Stacy,Marketing Assistant,47.3640936,0.7259705,FR,33
679,Ethe,Quality Control Specialist,46.322577,-0.4654102,FR,242
680,Waverly,Nurse,45.180547999999995,0.768949,FR,37
681,Cyndi,Recruiter,43.494573700000004,5.8978018,FR,277
682,Larry,Analyst Programmer,43.8317876,4.3686291,FR,28
683,Faina,Research Nurse,49.039076,2.074954,FR,5
684,Anneliese,Software Consultant,50.1559065,3.2571934,FR,187
685,Isobel,Mechanical Systems Engineer,50.483457,3.0030759999999996,FR,12
686,Cirillo,Editor,43.3152889,-1.9514657,ES,27
687,Jules,Research Associate,48.752837299999996,2.5304644,FR,157
688,Deerdre,Statistician IV,49.6488646,1.7314817999999998,FR,176
689,Tim,VP Quality Control,47.5113895,1.820875,FR,233
690,Price,Structural Analysis Engineer,48.794678399999995,2.3067496,FR,192
691,Marianne,Social Worker,47.367562899999996,2.901637,FR,7
692,Patten,Safety Technician III,48.8708001,2.166848,FR,111
693,Lyndsey,Nurse,48.8693156,2.3501981,FR,57
694,Cherilynn,Legal Assistant,49.189451,-0.8049350000000001,FR,236
695,Clarette,Account Coordinator,42.930417999999996,1.7243511000000002,FR,171
696,Sadie,Engineer I,48.835233,2.5198901,FR,193
697,Angeline,Quality Control Specialist,45.5673785,5.9481999000000005,FR,186
698,Dedra,Professor,49.0096906,2.5479244999999997,FR,2
699,Reena,VP Marketing,48.8120404,2.2718631,FR,111
700,Pet,Pharmacist,48.846652299999995,2.2582125,FR,130
701,Filberto,Community Outreach Specialist,43.0429124,1.9038837,FR,268
702,Ursuline,Mechanical Systems Engineer,45.6258385,0.06298909999999999,FR,34
703,Olive,Engineer IV,47.6651939,-2.7524402,FR,174
704,Mord,Recruiter,42.830293299999994,-1.6299337999999999,ES,103
705,Marylinda,VP Product Management,45.7039688,5.9492762,FR,60
706,Helsa,Desktop Support Technician,42.4423768,-8.6463086,ES,23
707,Gaby,Civil Engineer,45.70734,5.534063,FR,114
708,Boris,Structural Engineer,48.7803815,2.4549884,FR,287
709,Modesty,Biostatistician IV,44.8501354,-0.5702805000000001,FR,298
710,Norbie,Staff Accountant III,43.0429124,1.9038837,FR,153
711,Dyanne,Senior Sales Associate,49.2937975,3.7636127999999998,FR,236
712,Waldon,VP Product Management,38.291157500000004,-0.6322615,ES,85
713,Clemmy,Assistant Manager,48.9875598,2.2971584,FR,127
714,Rayna,Executive Secretary,46.068811,6.568907,FR,135
715,Chiarra,Programmer I,45.601784,5.131041000000001,FR,203
716,Russell,Nurse,46.715261299999995,-1.4517985,FR,54
717,Martainn,Computer Systems Analyst III,48.7997482,2.4699259,FR,296
718,Tad,Sales Representative,48.9897895,2.2868727000000004,FR,61
719,Marshall,Financial Advisor,43.0429124,1.9038837,FR,114
720,Tonia,Account Representative I,43.494573700000004,5.8978018,FR,178
721,Darrell,Geologist IV,50.650304399999996,2.9982752,FR,226
722,Heidie,Environmental Tech,48.861050399999996,2.3237083999999997,FR,159
723,Helenka,Desktop Support Technician,47.99561729999999,0.19244589999999998,FR,257
724,Quent,Safety Technician II,49.031645000000005,7.950014,FR,246
725,Brynna,Information Systems Manager,45.1721845,5.7078052,FR,263
726,Lindsay,Web Developer I,48.529165,-2.7586364,FR,46
727,Johannes,Speech Pathologist,46.1167,3.4167,FR,282
728,Adrianne,Engineer III,47.8417718,-0.3419882,FR,15
729,Julian,Financial Analyst,35.8941687,-5.2919563,ES,145
730,Angelo,Sales Representative,47.594843,1.3155028,FR,182
731,Gris,Programmer II,48.6066876,2.3023877999999995,FR,264
732,Richmond,Social Worker,49.387383,1.0839961,FR,160
733,Jessy,Executive Secretary,43.494573700000004,5.8978018,FR,295
734,Duke,Quality Engineer,45.9120061,6.1549499,FR,53
735,Elvyn,Assistant Manager,43.494573700000004,5.8978018,FR,112
736,Joleen,VP Product Management,48.372892900000004,-4.212758999999999,FR,36
737,Chickie,Health Coach I,47.17532,-1.6901491999999998,FR,202
738,Janine,Pharmacist,,,FR,175
739,Garvey,Account Executive,48.4339701,0.098598,FR,95
740,Sigfrid,Occupational Therapist,43.494573700000004,5.8978018,FR,234
741,Bebe,Recruiter,49.1931313,-0.3907558,FR,193
742,Eldredge,Human Resources Manager,37.78010689999999,-3.8235525000000004,ES,225
743,Lincoln,Human Resources Manager,43.862902000000005,3.3191089999999996,FR,256
744,Jabez,Design Engineer,49.4648362,2.8898334,FR,156
745,Hieronymus,Safety Technician I,37.970285,-1.1424988999999999,ES,288
746,Tyrone,Clinical Specialist,48.7720518,2.4921227000000004,FR,169
747,Jodie,Administrative Assistant III,43.7441795,2.5119990000000003,FR,141
748,Farley,Web Developer IV,45.697904,0.964671,FR,79
749,Candida,Marketing Manager,45.764339,4.768427,FR,117
750,Neel,Senior Financial Analyst,48.5851876,7.7342943,FR,127
751,Inga,Environmental Tech,43.470556,1.4974024,FR,197
752,Marja,Business Systems Development Analyst,43.616720799999996,3.8299106,FR,84
753,Garry,Senior Cost Accountant,48.8276508,1.9697936000000003,FR,214
754,Kristel,Community Outreach Specialist,48.989821899999995,1.7032903000000001,FR,123
755,Laird,Administrative Assistant III,44.1946802,4.0430608,FR,298
756,Hendrik,Senior Editor,48.690168,-1.3699309,FR,132
757,Kelbee,Nurse Practicioner,50.6793242,3.2510427,FR,88
758,Addie,Physical Therapy Assistant,43.8317876,4.3686291,FR,97
759,Randal,Financial Advisor,,,FR,132
760,Pris,Statistician III,43.298735,5.382597799999999,FR,217
761,Odell,Technical Writer,45.052484,4.8398662,FR,158
762,Laurella,Registered Nurse,48.589056,2.2458777999999997,FR,173
763,Teddy,Web Designer I,48.759003,2.323941,FR,234
764,Con,Office Assistant I,44.8055893,-0.630617,FR,193
765,Bret,Teacher,41.6465777,-4.7497457,ES,267
766,Lurlene,Project Manager,46.3194856,-0.4546217000000001,FR,218
767,Pall,Nurse Practicioner,46.1839042,-0.4738335,FR,260
768,Parry,Recruiting Manager,43.9235435,2.141706,FR,147
769,Inger,Internal Auditor,45.6258385,0.06298909999999999,FR,26
770,Falkner,Developer IV,44.1675867,2.0308233,FR,195
771,Ailene,Staff Scientist,46.068811,6.568907,FR,262
772,Desi,Chief Design Engineer,43.6121586,3.8626074,FR,32
773,Reggis,Senior Editor,48.8579687,2.5764306,FR,111
774,Lewes,Statistician III,47.594843,1.3155028,FR,20
775,Stephen,VP Accounting,45.70734,5.534063,FR,31
776,Terrill,Research Associate,46.1408985,2.8862985,FR,293
777,Mathe,Senior Cost Accountant,43.494573700000004,5.8978018,FR,60
778,Nadine,Marketing Manager,43.8324929,4.3662320999999995,FR,95
779,Danie,Product Engineer,44.3538674,2.9200826,FR,61
780,Ethe,Engineer IV,48.0482483,-1.6329288,FR,161
781,Pris,Research Associate,48.9897895,2.2868727000000004,FR,151
782,Brittani,Chief Design Engineer,47.3752386,-0.8453268,FR,173
783,Milissent,Staff Scientist,46.9874505,3.1506645,FR,171
784,Gretel,Junior Executive,43.494573700000004,5.8978018,FR,292
785,Conni,Social Worker,47.785421,-3.2602564,FR,76
786,Natty,Librarian,48.8693156,2.3501981,FR,202
787,Cele,Information Systems Manager,48.8537451,2.53823,FR,240
788,Frieda,Structural Analysis Engineer,47.780961600000005,-2.1084626,FR,97
789,Cortney,Project Manager,49.4263976,2.0887457,FR,77
790,Nefen,Data Coordiator,43.704612,7.261933,FR,53
791,Kellia,Actuary,45.8359543,5.0634248,FR,193
792,Gretna,Help Desk Operator,48.8335842,2.3757658999999998,FR,126
793,Elysia,Teacher,44.287408899999996,1.9973849999999997,FR,15
794,Benedict,Web Designer II,49.2958555,4.3603508,FR,282
795,Wilbert,Food Chemist,48.7212066,2.1222327,FR,23
796,Nanette,Software Test Engineer II,45.7164219,4.8750727,FR,85
797,Kat,Software Consultant,48.6140715,2.4739044,FR,92
798,Tabby,VP Accounting,48.812920899999995,2.2385405,FR,41
799,Zared,Financial Advisor,45.137411,3.812874,FR,201
800,Gabriella,Civil Engineer,48.861050399999996,2.3237083999999997,FR,214
801,Mollee,Biostatistician II,,,FR,162
802,Gae,Structural Analysis Engineer,46.8179207,0.5465548000000001,FR,251
803,Jannelle,Social Worker,45.1800316,0.7237613,FR,228
804,Glynnis,Office Assistant II,43.2916776,-0.3696612,FR,9
805,Mercy,Automation Specialist II,43.609798,1.495596,FR,193
806,Marina,Research Nurse,49.1606317,6.9179709,FR,141
807,Randene,Clinical Specialist,47.1837657,3.0182755,FR,165
808,Mallissa,Help Desk Technician,45.788378,3.1331436000000004,FR,299
809,Alexei,Budget/Accounting Analyst III,43.494573700000004,5.8978018,FR,110
810,Auguste,Product Engineer,43.473892,5.367851,FR,23
811,Sallyann,Account Executive,49.757096000000004,0.375789,FR,153
812,Crissie,Senior Financial Analyst,43.7441795,2.5119990000000003,FR,286
813,Karoly,Financial Analyst,43.8324929,4.3662320999999995,FR,150
814,Alleen,Nurse,49.031645000000005,7.950014,FR,150
815,Marquita,Analog Circuit Design manager,48.8218211,2.3999815,FR,99
816,Carlee,Software Engineer I,44.1012172,3.0792713,FR,198
817,Manny,VP Quality Control,47.9318074,5.2893597,FR,292
818,Lanny,Executive Secretary,43.494573700000004,5.8978018,FR,209
819,Dinny,Data Coordiator,48.8357169,2.2754517000000005,FR,250
820,Tallie,Human Resources Manager,45.889267100000005,0.3046171,FR,61
821,Camella,Community Outreach Specialist,45.180547999999995,0.768949,FR,298
822,Aeriel,Clinical Specialist,49.8683919,1.1433823,FR,274
823,Marcelia,Systems Administrator II,38.3628307,-0.5210564999999999,ES,194
824,Elayne,Software Test Engineer III,42.6962642,2.8797148999999997,FR,145
825,Rolland,Internal Auditor,47.4441206,-0.5572458,FR,166
826,Trevor,Mechanical Systems Engineer,48.7878212,2.0441607,FR,139
827,Dede,VP Sales,45.638467999999996,0.129895,FR,240
828,Lucas,Senior Cost Accountant,50.5429237,3.0864689999999997,FR,223
829,Kathleen,Account Executive,43.494573700000004,5.8978018,FR,82
830,Heinrik,Staff Scientist,49.89053679999999,2.3081396,FR,237
831,Jacklyn,Social Worker,46.2506074,5.1133935,FR,271
832,Kristofor,Media Manager I,38.994349,-1.8585424,ES,118
833,Cassandry,Tax Accountant,43.7441795,2.5119990000000003,FR,213
834,Justinn,Database Administrator III,49.8683919,1.1433823,FR,153
835,Gard,Engineer III,43.1598675,-0.8926089,FR,284
836,Noak,Assistant Media Planner,44.1372925,4.810107,FR,203
837,Phyllis,Assistant Media Planner,43.3152889,-1.9514657,ES,242
838,Rey,Business Systems Development Analyst,48.7997482,2.4699259,FR,108
839,Guinna,Office Assistant III,48.076232700000006,-0.7609009,FR,177
840,Reinwald,Senior Sales Associate,40.500471000000005,-3.6673942000000004,ES,133
841,Webster,Computer Systems Analyst II,48.509075,-2.7383235,FR,199
842,Coleman,VP Quality Control,43.1283145,5.9294606,FR,14
843,Guendolen,Staff Scientist,43.494573700000004,5.8978018,FR,213
844,Isaak,Project Manager,45.662969399999994,6.3760601999999995,FR,248
845,Michail,Help Desk Technician,49.0261841,1.1518478,FR,152
846,Abbey,Geological Engineer,50.3566891,3.5246977,FR,224
847,Dulcie,Legal Assistant,41.6543565,0.6251541,ES,132
848,Fletcher,Automation Specialist III,43.541891299999996,7.036238900000001,FR,218
849,Vanny,Account Executive,50.398362,1.5608271,FR,177
850,Orren,Compensation Analyst,43.4931556,5.369818700000001,FR,273
851,Jewell,Geologist IV,43.1286974,6.135649900000001,FR,140
852,Joel,Legal Assistant,48.8706152,2.2289339,FR,268
853,Flossy,GIS Technical Architect,49.1931313,-0.3907558,FR,43
854,Yank,Payment Adjustment Coordinator,47.226530700000005,2.0598182,FR,115
855,Charlie,Senior Editor,49.4263976,2.0887457,FR,47
856,Alessandra,Payment Adjustment Coordinator,49.89053679999999,2.3081396,FR,286
857,Abigail,Web Designer II,44.264289500000004,5.940651,FR,58
858,Ethan,Mechanical Systems Engineer,48.2678882,2.7122802000000004,FR,9
859,Jessika,Environmental Tech,43.705817700000004,2.1365748,FR,269
860,Merralee,Account Coordinator,46.571039,3.325957,FR,276
861,Drake,Environmental Specialist,48.7803815,2.4549884,FR,55
862,Aileen,Budget/Accounting Analyst II,48.4990903,7.311863499999999,FR,17
863,Salvidor,Analyst Programmer,43.0429124,1.9038837,FR,8
864,Athene,General Manager,42.0096857,-4.5288015999999995,ES,17
865,Werner,Business Systems Development Analyst,46.715261299999995,-1.4517985,FR,112
866,Gregoire,VP Sales,48.9105576,2.3645084,FR,51
867,Rickie,Project Manager,50.702223499999995,3.1685214,FR,220
868,Caspar,Research Assistant I,43.7786945,3.7264439,FR,81
869,Alene,Teacher,48.895948700000005,2.2679278,FR,275
870,Brenn,Nuclear Power Engineer,48.9318625,2.4943891,FR,173
871,Colin,GIS Technical Architect,48.403405,7.4567820000000005,FR,43
872,Gasper,GIS Technical Architect,43.6218385,3.8403455,FR,33
873,Cherie,Desktop Support Technician,43.7441795,2.5119990000000003,FR,281
874,Brynne,Food Chemist,48.1079676,-1.5212701000000002,FR,59
875,Fidel,Help Desk Operator,49.1931313,-0.3907558,FR,135
876,Pasquale,VP Quality Control,49.0337974,2.0875699,FR,221
877,Emogene,Office Assistant III,49.9772098,1.6928443,FR,199
878,Lilias,Database Administrator III,49.476996,0.1639479,FR,180
879,Alanah,Research Nurse,43.3011387,-0.3861522,FR,232
880,Lavinie,Electrical Engineer,47.34103220000001,1.1586866000000002,FR,115
881,Melany,Research Nurse,48.5267938,2.5096455,FR,238
882,Lorilee,Developer III,48.690168,-1.3699309,FR,2
883,Retha,Research Nurse,47.594843,1.3155028,FR,274
884,Tedd,Structural Engineer,46.7457125,5.9081968,FR,88
885,Dennie,Account Coordinator,48.8809869,2.2760839,FR,232
886,Natty,Mechanical Systems Engineer,47.594843,1.3155028,FR,27
887,Ramona,Software Engineer II,43.494573700000004,5.8978018,FR,33
888,Sollie,Administrative Officer,48.8805451,2.1476836,FR,230
889,Ron,Assistant Manager,38.029402600000004,-0.6867939000000001,ES,149
890,Harcourt,Senior Financial Analyst,47.3362701,-1.5349069,FR,251
891,Robenia,Accountant I,43.8447278,4.3520438,FR,167
892,Byran,Senior Quality Engineer,42.830293299999994,-1.6299337999999999,ES,117
893,Netta,Social Worker,43.475099799999995,1.7205437,FR,11
894,Carmelina,Programmer III,49.0285391,2.3236877000000002,FR,142
895,Freddie,Food Chemist,48.83488010000001,2.5070547999999997,FR,136
896,Gracie,Editor,49.4382375,1.0598119,FR,171
897,James,Physical Therapy Assistant,45.521519,3.5276642,FR,38
898,Gusta,Administrative Officer,43.7441795,2.5119990000000003,FR,238
899,Suzy,Chief Design Engineer,46.571039,3.325957,FR,286
900,Corinne,Administrative Assistant IV,43.494573700000004,5.8978018,FR,203
901,Layla,Design Engineer,49.0194225,2.4613377,FR,273
902,Gus,Human Resources Assistant I,43.66004,7.214992999999999,FR,241
903,Sonny,Staff Scientist,48.0381485,-3.7612141,FR,137
904,Corrie,Registered Nurse,48.8708001,2.166848,FR,59
905,Hamid,Office Assistant II,43.494573700000004,5.8978018,FR,249
906,Tom,GIS Technical Architect,48.7865463,2.054647,FR,76
907,Sadie,Research Associate,49.333258,6.1517599999999995,FR,73
908,Erhard,Environmental Tech,43.494573700000004,5.8978018,FR,246
909,Frederic,Recruiter,47.389214200000005,0.6942885,FR,4
910,Horton,Teacher,42.4556093,-8.632561099999998,ES,139
911,Livy,Geologist I,48.73812589999999,2.3536083,FR,197
912,Javier,Engineer III,47.287125,5.993932,FR,141
913,Georgine,Senior Editor,43.609798,1.495596,FR,21
914,Nelle,Civil Engineer,43.494573700000004,5.8978018,FR,105
915,Rozamond,Librarian,48.511666299999995,-2.7393345,FR,73
916,Karlan,Budget/Accounting Analyst I,48.846652299999995,2.2582125,FR,18
917,Annabell,Compensation Analyst,49.0240609,2.4633136,FR,114
918,Deina,Senior Quality Engineer,47.859986,-3.6006682999999997,FR,180
919,Stuart,Office Assistant II,48.305818,4.024099,FR,79
920,Jeth,Research Nurse,43.0429124,1.9038837,FR,171
921,Olenka,Sales Representative,47.9318074,5.2893597,FR,147
922,Conn,Analog Circuit Design manager,48.989821899999995,1.7032903000000001,FR,280
923,Pammie,Product Engineer,,,FR,12
924,Sammy,Civil Engineer,44.0643415,1.1011089,FR,117
925,Meriel,Recruiter,48.5267938,2.5096455,FR,272
926,Peterus,Senior Quality Engineer,48.511666299999995,-2.7393345,FR,200
927,Kristofor,Assistant Manager,46.1705063,1.8852108,FR,175
928,Terri-jo,Help Desk Operator,48.5966574,7.774413900000001,FR,50
929,Jere,Marketing Assistant,44.255137,5.262028,FR,160
930,Lukas,Electrical Engineer,43.494573700000004,5.8978018,FR,159
931,Lesli,VP Product Management,47.2550409,-1.5401497,FR,8
932,Lauretta,Actuary,,,FR,257
933,Charlie,Quality Control Specialist,47.9544744,-2.0532343,FR,59
934,Reinald,Recruiting Manager,48.788568299999994,2.3884282999999997,FR,200
935,Haily,Data Coordiator,48.2044234,5.942257,FR,11
936,Lillian,Teacher,49.03353,2.0768291000000003,FR,258
937,Layney,Office Assistant II,50.398362,1.5608271,FR,189
938,Tyne,Administrative Officer,45.193485700000004,5.7218985,FR,181
939,Verina,Structural Engineer,45.9018536,6.121072,FR,191
940,Herrick,Recruiting Manager,48.759003,2.323941,FR,169
941,Netti,Graphic Designer,43.7786945,3.7264439,FR,194
942,Wyndham,Accountant I,43.8164948,4.8090237,FR,277
943,Reynolds,Safety Technician II,46.068811,6.568907,FR,66
944,Carma,Media Manager III,47.3036891,2.6981496,FR,185
945,Udale,Nurse,47.2550409,-1.5401497,FR,198
946,Ignazio,Director of Sales,46.1167,3.4167,FR,167
947,Amelia,VP Accounting,44.1675867,2.0308233,FR,111
948,Dione,Editor,48.8357169,2.2754517000000005,FR,259
949,Meredeth,Speech Pathologist,44.1012172,3.0792713,FR,174
950,Laurel,Senior Sales Associate,43.494573700000004,5.8978018,FR,256
951,Lory,Desktop Support Technician,46.7457125,5.9081968,FR,115
952,Fields,Community Outreach Specialist,43.0429124,1.9038837,FR,38
953,Arnuad,Senior Cost Accountant,48.8693156,2.3501981,FR,63
954,Kattie,Compensation Analyst,43.275207,1.9452714,FR,120
955,Evey,Graphic Designer,47.9318074,5.2893597,FR,30
956,Patsy,Account Coordinator,43.51908579999999,5.4431946,FR,159
957,Ware,Database Administrator IV,43.8317876,4.3686291,FR,51
958,Jessamine,Account Representative IV,49.504887200000006,5.694475700000001,FR,175
959,Dianne,Systems Administrator I,43.6943099,2.0376775,FR,138
960,Ignacius,Physical Therapy Assistant,47.8225694,0.3908219,FR,122
961,Kristan,Graphic Designer,43.704612,7.261933,FR,237
962,Sandi,Actuary,47.613861,6.785553,FR,26
963,Lilian,Social Worker,48.8693156,2.3501981,FR,83
964,Marilin,Automation Specialist III,48.7700185,2.3508225,FR,48
965,Arda,Registered Nurse,50.1015135,1.8573006,FR,296
966,Gaylor,Accountant III,48.529165,-2.7586364,FR,27
967,Tommy,Research Assistant IV,44.7016194,4.5805038,FR,269
968,Karol,Programmer IV,48.9875598,2.2971584,FR,243
969,Cristionna,VP Marketing,48.830394,2.2372822999999995,FR,294
970,Vivi,Analog Circuit Design manager,47.407461,-1.1875200000000001,FR,279
971,Sada,Graphic Designer,48.890054,2.2372792,FR,175
972,Magdalen,Financial Advisor,49.0096906,2.5479244999999997,FR,184
973,Garnet,VP Marketing,50.5429237,3.0864689999999997,FR,225
974,Raven,Community Outreach Specialist,47.859986,-3.6006682999999997,FR,52
975,Arvy,Financial Analyst,42.5944931,-5.6195112,ES,263
976,Holli,Web Developer IV,40.4304536,-3.7105117999999995,ES,223
977,Kenn,Account Representative II,48.892701,2.233089,FR,8
978,Barty,Electrical Engineer,47.215415899999996,5.9471867,FR,107
979,Budd,Administrative Assistant I,47.99561729999999,0.19244589999999998,FR,104
980,Elyssa,Geologist II,43.9770581,4.8762265,FR,135
981,Rockie,Automation Specialist II,48.890054,2.2372792,FR,45
982,Jaquelyn,Cost Accountant,38.029402600000004,-0.6867939000000001,ES,82
983,Nicki,Financial Analyst,43.1283145,5.9294606,FR,160
984,Jilleen,Web Designer I,43.0429124,1.9038837,FR,101
985,Astra,Database Administrator I,49.189451,-0.8049350000000001,FR,283
986,Dennie,Computer Systems Analyst IV,44.346784,5.8855505,FR,298
987,Mack,Graphic Designer,46.5838069,0.3350126,FR,221
988,Lilli,Software Test Engineer III,49.2095093,2.5814197,FR,111
989,Collen,Professor,45.638467999999996,0.129895,FR,206
990,Ive,Programmer I,42.9782326,-7.5626411,ES,102
991,Geralda,Human Resources Assistant III,48.8693156,2.3501981,FR,198
992,Chrisse,Senior Editor,42.1294151,-0.39602750000000003,ES,78
993,Jedd,Computer Systems Analyst I,48.747518,4.700132900000001,FR,147
994,Barnabas,Tax Accountant,45.052484,4.8398662,FR,296
995,Wilton,Technical Writer,49.0194225,2.4613377,FR,225
996,Merline,VP Sales,43.494573700000004,5.8978018,FR,108
997,Hy,Account Executive,43.677767700000004,7.1492431,FR,274
998,Anton,VP Marketing,47.2215999,5.967596299999999,FR,16
999,Karrah,Food Chemist,47.3036891,2.6981496,FR,160
1000,Winnifred,Administrative Officer,48.6511908,6.481599,FR,53
