id,name,job_title,home_latitude,home_longitude,country,near_shop,check_format,near_shop_home
1,Teresita,Social Worker,47.35913660000001,2.8002946,FR,169,OK,297
2,Sanders,Teacher,46.66789779999999,-1.4087525,FR,162,OK,46
3,Steward,Software Consultant,44.1675867,2.0308233,FR,85,OK,140
4,Hiram,Geological Engineer,49.16981060000001,6.1200844000000005,FR,16,OK,280
5,Rebeca,Data Coordiator,46.3194856,-0.4546217000000001,FR,287,OK,102
6,Sherry,Information Systems Manager,48.0976547,-1.7819266,FR,101,OK,59
7,Ody,Tax Accountant,43.4945737,5.8978018,FR,234,OK,258
8,Lucita,Operator,50.398362,1.5608271,FR,217,OK,247
9,Aurie,Accountant I,47.6329545,7.483902199999998,FR,151,OK,110
10,Rhianon,Design Engineer,45.1905186,0.7423124,FR,204,OK,288
11,Collin,Staff Scientist,47.9962116,-4.1020654,FR,77,OK,214
12,Garfield,Office Assistant II,43.51908579999999,5.4431946,FR,292,OK,137
13,Sherie,Junior Executive,43.4945737,5.8978018,FR,228,OK,258
14,Derwin,Marketing Assistant,43.0429124,1.9038837,FR,271,OK,220
15,Garwood,Senior Editor,48.8951749,2.0743633000000004,FR,65,OK,123
16,Marjie,Clinical Specialist,44.1640152,3.8481099,FR,26,OK,269
17,Sheppard,Web Designer I,43.5162166,-5.6642519999999985,ES,28,OK,139
18,Constantia,Office Assistant I,47.38921420000001,0.6942885,FR,267,OK,7
19,Madelin,VP Marketing,48.7057309,2.2186743,FR,74,OK,204
20,Ynez,Accountant I,0.0,2.8125,FR,280, BAD_COORD,280
21,Stewart,Accounting Assistant IV,48.7700185,2.3508225,FR,118,OK,161
22,Culver,Senior Editor,45.7967858,4.8427596,FR,234,OK,130
23,Bastien,VP Quality Control,48.1392924,-1.9439194,FR,21,OK,59
24,Rorie,Sales Associate,48.8834605,2.2335234,FR,126,OK,23
25,Veronike,Environmental Specialist,48.8132669,2.4114143,FR,12,OK,78
26,Joel,Accountant I,48.8809869,2.2760839,FR,293,OK,14
27,Rockie,Teacher,49.0426,2.087826,FR,297,OK,66
28,Stephanus,Research Assistant III,43.1553222,5.8998183,FR,27,OK,75
29,Cyndi,GIS Technical Architect,42.9782326,-7.5626411,ES,49,OK,107
30,Catharine,Human Resources Manager,48.4914852,-4.0442397,FR,255,OK,241
31,Web,Media Manager III,47.3752386,-0.8453268,FR,95,OK,74
32,Bebe,Health Coach I,43.4945737,5.8978018,FR,181,OK,258
33,Sheffield,Accounting Assistant I,48.9318625,2.4943891,FR,113,OK,277
34,Denna,Programmer IV,43.4945737,5.8978018,FR,281,OK,258
35,Cornall,GIS Technical Architect,49.89053679999999,2.3081396,FR,38,OK,247
36,Vilhelmina,Senior Quality Engineer,48.7878212,2.0441607,FR,92,OK,138
37,Walliw,Graphic Designer,43.3152889,-1.9514657,ES,283,OK,178
38,Marcy,Quality Engineer,44.1675867,2.0308233,FR,70,OK,140
39,Shay,Media Manager III,,,FR,262, MISS_COORD,262
40,Brigida,Chemical Engineer,46.8118134,-0.5451553000000001,FR,299,OK,102
41,Udale,Chief Design Engineer,43.586204,1.6250848999999998,FR,275,OK,158
42,Amara,Actuary,,,FR,174, MISS_COORD,174
43,Dolf,Director of Sales,48.7276331,2.281825,FR,136,OK,27
44,Jonathon,Engineer III,39.463861,-0.3689508,ES,74,OK,219
45,Agata,Assistant Media Planner,48.8834042,2.333434,FR,95,OK,126
46,Drugi,Director of Sales,44.0678168,6.985511200000001,FR,239,OK,68
47,Rubina,Recruiting Manager,43.2916776,-0.3696612,FR,59,OK,171
48,Hillier,Desktop Support Technician,47.38605070000001,0.7236073000000001,FR,112,OK,7
49,Rees,Compensation Analyst,43.4462218,5.2254137,FR,56,OK,137
50,Alley,Accounting Assistant III,48.9086571,2.4532855,FR,175,OK,277
51,Devland,Research Nurse,48.890054,2.2372792,FR,72,OK,23
52,Athena,Structural Analysis Engineer,48.8809869,2.2760839,FR,113,OK,14
53,Karoly,VP Accounting,48.8331738,-1.6029573,FR,213,OK,59
54,Enid,Legal Assistant,44.2874089,1.997385,FR,137,OK,140
55,Benetta,Database Administrator III,48.892701,2.233089,FR,257,OK,174
56,Lynnett,VP Accounting,48.8927579,2.2817978,FR,270,OK,14
57,Arleta,Software Engineer I,47.594843,1.3155028,FR,156,OK,160
58,Florentia,Senior Quality Engineer,47.3640936,0.7259705,FR,250,OK,7
59,Justin,Recruiting Manager,44.7721717,-0.6995220999999999,FR,229,OK,207
60,Frants,Assistant Manager,45.39771,4.77996,FR,91,OK,98
61,Evania,Food Chemist,45.137411,3.812874,FR,95,OK,12
62,Annecorinne,Director of Sales,45.1934857,5.7218985,FR,46,OK,103
63,Alexandro,Recruiting Manager,49.1931313,-0.3907558,FR,284,OK,192
64,Rick,Programmer I,48.891587,2.2408938,FR,298,OK,232
65,Corie,Recruiter,48.5597333,7.7459273,FR,50,OK,221
66,Coleen,Librarian,44.3538674,2.9200826,FR,267,OK,33
67,Shay,Software Engineer II,43.7441795,2.5119990000000003,FR,24,OK,20
68,Lucille,Cost Accountant,43.49883970000001,4.9789040999999985,FR,182,OK,168
69,Shel,Environmental Specialist,42.7981285,1.5693758999999998,FR,18,OK,71
70,Shirlee,Research Nurse,38.994349,-1.8585424,ES,122,OK,164
71,Jerrine,Paralegal,44.025555,1.378056,FR,62,OK,228
72,Tina,Accountant IV,43.4945737,5.8978018,FR,261,OK,258
73,Everett,Structural Analysis Engineer,45.697904,0.964671,FR,91,OK,288
74,Lonee,Senior Cost Accountant,43.97637460000001,4.9052738,FR,32,OK,234
75,Frasco,Staff Accountant III,49.243003,2.510652,FR,128,OK,121
76,Payton,Structural Engineer,43.4945737,5.8978018,FR,78,OK,258
77,Darn,Software Engineer III,44.2874089,1.997385,FR,97,OK,140
78,Dulcea,Automation Specialist I,49.48153,0.108211,FR,258,OK,295
79,Daloris,Mechanical Systems Engineer,46.068811,6.568907,FR,74,OK,159
80,Nora,VP Accounting,48.8693156,2.3501981,FR,94,OK,126
81,Lori,Chief Design Engineer,48.08850870000001,0.2075745,FR,177,OK,284
82,Trstram,Assistant Professor,48.7946784,2.3067496,FR,170,OK,129
83,Elysha,Research Assistant I,44.8671415,4.9157564,FR,75,OK,62
84,Donovan,Senior Financial Analyst,45.9018536,6.121072,FR,271,OK,300
85,Carey,Developer II,43.884893,-0.5046003,FR,7,OK,265
86,Ian,Information Systems Manager,28.084612100000005,-15.4331673,ES,209, BAD_COORD,209
87,Gerick,Research Nurse,50.716719,3.16806,FR,78,OK,142
88,Yardley,Senior Developer,49.2630058,5.9291577,FR,57,OK,18
89,Fancy,Help Desk Technician,48.5851876,7.7342943,FR,127,OK,221
90,Nathalia,Teacher,46.9428639,4.299856299999999,FR,118,OK,29
91,Maggee,Web Designer IV,43.86290200000001,3.319109,FR,46,OK,237
92,Obadiah,Senior Financial Analyst,47.7489727,7.350706599999999,FR,135,OK,110
93,Courtnay,Help Desk Operator,43.0429124,1.9038837,FR,149,OK,220
94,Josephine,Financial Analyst,47.9962116,-4.1020654,FR,132,OK,214
95,Tobey,Junior Executive,48.8753655,2.3405004000000003,FR,10,OK,126
96,Amity,Nurse,43.33628220000001,3.2188961,FR,169,OK,133
97,Derry,Health Coach IV,47.594843,1.3155028,FR,122,OK,160
98,Gale,Teacher,45.4381658,4.3868779,FR,150,OK,82
99,Cindra,Computer Systems Analyst I,46.6322044,-0.5664231,FR,84,OK,102
100,Faulkner,Sales Representative,43.4598651,-3.8057968,ES,22,OK,39
101,Mick,Marketing Manager,48.6277459,2.4381665,FR,217,OK,167
102,Floyd,Marketing Manager,44.346784,5.8855505,FR,85,OK,153
103,Aldon,Research Assistant I,48.8373554,2.2682399,FR,144,OK,141
104,Cole,Graphic Designer,45.3207796,4.1293609,FR,67,OK,82
105,Pauly,Analyst Programmer,48.892701,2.233089,FR,224,OK,174
106,Dickie,VP Marketing,43.7441795,2.5119990000000003,FR,116,OK,20
107,Lesli,Staff Accountant III,47.8225694,0.3908219,FR,88,OK,148
108,Eddie,Human Resources Manager,44.5394324,3.5333133,FR,219,OK,33
109,Cammi,Design Engineer,47.6022755,6.2194417999999985,FR,180,OK,67
110,Dulciana,Engineer II,46.3410256,4.9979479000000016,FR,14,OK,88
111,Eldridge,Operator,41.4904044,2.0776887,ES,279,OK,264
112,Linc,VP Quality Control,48.9105576,2.3645084,FR,263,OK,134
113,Rollo,Electrical Engineer,44.346784,5.8855505,FR,163,OK,153
114,Filmore,Marketing Manager,40.7559095,-0.3371889,ES,191,OK,286
115,Lotti,Chemical Engineer,43.834535,5.0436629,FR,211,OK,150
116,Brigit,Design Engineer,48.689836,6.17445,FR,229,OK,231
117,Harold,Pharmacist,48.6066876,2.3023877999999995,FR,197,OK,85
118,Rayner,Staff Accountant I,36.5292176,-6.2940354,ES,37,OK,101
119,Yul,Geological Engineer,43.4945737,5.8978018,FR,227,OK,258
120,Marion,Software Consultant,28.1236316,-15.428773800000002,ES,166, BAD_COORD,166
121,Oswell,Sales Representative,43.3177929,-1.9814245,ES,9,OK,178
122,Hurley,Graphic Designer,48.8706152,2.2289339,FR,116,OK,23
123,Conni,Biostatistician IV,47.38921420000001,0.6942885,FR,234,OK,7
124,Jakie,Database Administrator II,46.6750305,4.3642884,FR,90,OK,29
125,Errick,VP Product Management,46.6698573,0.3697581,FR,141,OK,243
126,Aprilette,Chemical Engineer,43.4945737,5.8978018,FR,50,OK,258
127,Ethelda,Nurse Practicioner,28.00872,-15.398022400000002,ES,10, BAD_COORD,10
128,Alick,Media Manager I,48.689836,6.17445,FR,261,OK,231
129,Shir,Mechanical Systems Engineer,48.3009689,-1.2836594,FR,41,OK,59
130,Hedvig,Administrative Officer,48.07623270000001,-0.7609009,FR,255,OK,208
131,Lynnet,General Manager,48.80696010000001,2.3549227000000004,FR,128,OK,78
132,Misti,VP Sales,47.49116,3.91302,FR,148,OK,29
133,Druci,Senior Sales Associate,48.9318625,2.4943891,FR,231,OK,277
134,Liz,Associate Professor,49.4006213,1.1150619,FR,111,OK,63
135,Arvy,Assistant Professor,48.5975789,2.4626489,FR,176,OK,167
136,Filberto,VP Product Management,43.12376079999999,2.317187,FR,20,OK,213
137,Friederike,Account Representative II,43.804723,4.401981,FR,128,OK,116
138,Damon,Senior Cost Accountant,42.229169,-8.7026991,ES,34,OK,196
139,Pavlov,Community Outreach Specialist,43.553302,6.574528999999999,FR,186,OK,122
140,Ester,Assistant Professor,48.7845598,2.0433063,FR,19,OK,138
141,Mohandis,Accountant III,49.243003,2.510652,FR,203,OK,121
142,Kalila,Payment Adjustment Coordinator,42.8591137,-2.6844071,ES,118,OK,39
143,Lorrie,Dental Hygienist,43.840232,5.037751,FR,102,OK,150
144,Carlynne,Chemical Engineer,47.9544744,-2.0532343,FR,147,OK,59
145,Wilton,Project Manager,43.4945737,5.8978018,FR,135,OK,258
146,Andy,VP Sales,,,FR,181, MISS_COORD,181
147,Sonnnie,Food Chemist,43.2916776,-0.3696612,FR,218,OK,171
148,Binni,Teacher,43.067122,0.151424,FR,145,OK,171
149,Carla,Teacher,47.6022755,6.2194417999999985,FR,110,OK,67
150,Christoph,Editor,45.521519,3.5276642,FR,241,OK,222
151,Pearline,Assistant Professor,45.396383,4.325896299999999,FR,54,OK,82
152,Halette,Human Resources Manager,47.3036891,2.6981496,FR,159,OK,272
153,Oby,Engineer III,47.2550409,-1.5401497,FR,252,OK,296
154,Leonora,Geological Engineer,48.8132669,2.4114143,FR,55,OK,78
155,Kissie,Editor,46.66789779999999,-1.4087525,FR,136,OK,46
156,Whittaker,Dental Hygienist,,,FR,38, MISS_COORD,38
157,Elna,Geologist II,48.9475246,2.4888946,FR,253,OK,277
158,Emelita,Registered Nurse,44.0527811,6.1717148,FR,96,OK,77
159,Darb,Actuary,46.7713478,3.8379578,FR,282,OK,29
160,Schuyler,Media Manager I,50.3566891,3.5246977,FR,96,OK,227
161,Elene,Technical Writer,49.0422777,2.03776,FR,14,OK,66
162,Jania,Internal Auditor,37.4852899,-2.2959788,ES,118,OK,201
163,Ruprecht,Programmer I,43.53121,1.402934,FR,208,OK,294
164,Tibold,Budget/Accounting Analyst III,45.126841,-0.662941,FR,181,OK,34
165,Calv,Account Executive,43.9235435,2.141706,FR,81,OK,140
166,Chevy,Staff Scientist,47.7489727,7.350706599999999,FR,212,OK,110
167,Christian,Recruiting Manager,48.2506791,6.4196206,FR,21,OK,117
168,Martica,Operator,46.8118134,-0.5451553000000001,FR,43,OK,102
169,Olenolin,Financial Analyst,43.0429124,1.9038837,FR,42,OK,220
170,See,Information Systems Manager,47.35913660000001,2.8002946,FR,205,OK,297
171,Olimpia,Associate Professor,48.8708001,2.166848,FR,220,OK,104
172,Susi,Web Designer I,46.8179207,0.5465548000000001,FR,47,OK,261
173,Moria,Community Outreach Specialist,,,FR,189, MISS_COORD,189
174,Carce,Programmer Analyst IV,43.51908579999999,5.4431946,FR,111,OK,137
175,Odo,Assistant Professor,49.89053679999999,2.3081396,FR,206,OK,247
176,Marjy,Junior Executive,43.4598651,-3.8057968,ES,141,OK,39
177,Fayth,Physical Therapy Assistant,43.6085373,1.4525313,FR,254,OK,132
178,Jimmy,Professor,48.749354,2.480322,FR,97,OK,72
179,Eileen,Nurse,37.4212157,-5.925121099999998,ES,184,OK,101
180,Traci,Software Engineer I,43.12376079999999,2.317187,FR,294,OK,213
181,Barrie,Paralegal,48.689836,6.17445,FR,53,OK,231
182,Griffy,Structural Analysis Engineer,43.4945737,5.8978018,FR,91,OK,258
183,Ebonee,Director of Sales,47.3036891,2.6981496,FR,24,OK,272
184,Abbey,Research Assistant IV,46.5838069,0.3350126,FR,231,OK,243
185,Antoine,Analyst Programmer,,,FR,94, MISS_COORD,94
186,Chandal,VP Accounting,47.8074536,7.176978299999999,FR,236,OK,110
187,Minta,Director of Sales,48.5597333,7.7459273,FR,141,OK,221
188,Maribeth,Office Assistant IV,46.3349544,2.789104,FR,209,OK,235
189,Kirby,Associate Professor,48.7717343,2.5030826,FR,93,OK,72
190,Wiley,VP Sales,48.6169664,2.4062650000000003,FR,187,OK,85
191,Horatius,Account Coordinator,43.2916776,-0.3696612,FR,145,OK,171
192,Melina,VP Product Management,,,ES,181, MISS_COORD,181
193,Uriel,Systems Administrator III,49.0511571,4.0911917,FR,75,OK,124
194,Sheba,Graphic Designer,45.3954435,3.828292,FR,16,OK,222
195,Kenton,Compensation Analyst,43.298735,5.382597799999999,FR,21,OK,137
196,Elsi,Clinical Specialist,45.7595382,4.8310920999999984,FR,178,OK,50
197,Hetty,Food Chemist,47.5619629,-0.9147447,FR,141,OK,65
198,Imelda,Nurse Practicioner,50.3566891,3.5246977,FR,198,OK,227
199,Caressa,Executive Secretary,48.8708001,2.166848,FR,173,OK,104
200,Maure,Senior Editor,46.948305100000006,1.9894311,FR,258,OK,199
201,Constantin,Systems Administrator I,43.7441795,2.5119990000000003,FR,8,OK,20
202,Susana,Sales Representative,49.039076,2.074954,FR,46,OK,66
203,Lissie,Executive Secretary,43.8324929,4.3662321,FR,295,OK,116
204,Clarke,Registered Nurse,44.346784,5.8855505,FR,247,OK,153
205,Henrik,Statistician IV,48.006844,2.7428365,FR,5,OK,95
206,Nevsa,Environmental Tech,48.07623270000001,-0.7609009,FR,137,OK,208
207,Letty,Research Nurse,50.2837307,2.7425682,FR,40,OK,247
208,Schuyler,Nurse Practicioner,44.7721717,-0.6995220999999999,FR,34,OK,207
209,Durant,Nurse,43.3057431,-1.9802013,ES,162,OK,178
210,Carlin,Marketing Assistant,45.3639886,5.5949365,FR,28,OK,81
211,Orel,Librarian,48.2660539,0.768419,FR,92,OK,284
212,Sunny,Registered Nurse,48.9101028,2.234305,FR,80,OK,14
213,Celestina,Health Coach III,39.55583920000001,2.5941239,ES,143,OK,169
214,Gil,Biostatistician II,48.2044234,5.942257,FR,235,OK,186
215,Lynnet,Financial Advisor,43.9277535,2.1504611,FR,168,OK,140
216,Talbert,Analog Circuit Design manager,48.7707356,2.0803619,FR,161,OK,138
217,Mariette,Executive Secretary,46.1705063,1.8852108,FR,183,OK,261
218,Joane,Office Assistant III,47.594843,1.3155028,FR,148,OK,160
219,Giraud,Senior Financial Analyst,49.4660029,1.0736574,FR,138,OK,63
220,Ariella,Analog Circuit Design manager,43.4945737,5.8978018,FR,210,OK,258
221,Ford,Systems Administrator IV,48.1903349,3.2995005,FR,130,OK,144
222,Alistair,Director of Sales,45.7787293,3.0857432,FR,1,OK,291
223,Arel,Structural Engineer,41.5044882,-5.7434763,ES,230,OK,112
224,Dudley,Software Consultant,44.0527811,6.1717148,FR,184,OK,77
225,Warde,Pharmacist,48.4514438,-2.0559531000000004,FR,14,OK,59
226,Alasteir,Engineer I,48.759003,2.323941,FR,193,OK,254
227,Hamlin,Research Assistant III,48.890054,2.2372792,FR,177,OK,23
228,Marta,Internal Auditor,43.4945737,5.8978018,FR,268,OK,258
229,Krissy,Pharmacist,43.3156727,-0.4289432,FR,107,OK,265
230,Amandy,VP Marketing,43.7441795,2.5119990000000003,FR,227,OK,20
231,Tore,Systems Administrator III,47.8215045,7.5409869999999986,FR,290,OK,110
232,Palm,Web Developer II,47.9318074,5.2893597,FR,295,OK,56
233,Hill,Tax Accountant,47.38921420000001,0.6942885,FR,222,OK,7
234,Alvan,Human Resources Manager,45.7039688,5.9492762,FR,55,OK,300
235,Cathrine,Help Desk Operator,50.398362,1.5608271,FR,210,OK,247
236,Titos,General Manager,43.1162469,1.6196332,FR,66,OK,71
237,Northrup,Speech Pathologist,40.4563733,-3.6952896,ES,110,OK,271
238,Corinna,Senior Quality Engineer,45.991471,4.718821,FR,70,OK,108
239,Eleonora,Social Worker,48.5851876,7.7342943,FR,246,OK,221
240,Angel,Senior Financial Analyst,45.70734,5.534063,FR,14,OK,5
241,Bengt,Graphic Designer,48.6939078,2.3491182,FR,145,OK,80
242,Dario,Programmer Analyst III,43.7441795,2.5119990000000003,FR,127,OK,20
243,Camellia,Help Desk Technician,45.7451347,4.825231099999999,FR,106,OK,50
244,Crystal,Media Manager IV,48.8282801,2.7011678,FR,260,OK,51
245,Jozef,Graphic Designer,48.69682,2.567685,FR,86,OK,95
246,Maison,Financial Advisor,45.788378,3.1331436000000004,FR,86,OK,291
247,Rouvin,Product Engineer,48.8134287,7.7825969,FR,180,OK,263
248,Waly,Information Systems Manager,48.78355379999999,2.0439218999999995,FR,46,OK,138
249,Ardys,Staff Accountant I,42.930418,1.7243511000000002,FR,162,OK,71
250,Chilton,Web Developer III,49.243003,2.510652,FR,239,OK,121
251,Spike,Programmer Analyst IV,48.9782015,4.3827303,FR,34,OK,124
252,Der,Nurse,43.1283145,5.9294606,FR,96,OK,90
253,Shepperd,Registered Nurse,48.9449573,2.1463759,FR,135,OK,123
254,Marv,Teacher,48.6140715,2.4739044,FR,201,OK,167
255,Maria,Food Chemist,48.0386685,-2.9231898,FR,287,OK,145
256,Alexandros,Administrative Assistant IV,48.07623270000001,-0.7609009,FR,123,OK,208
257,Waly,Electrical Engineer,47.4947984,1.2613018,FR,217,OK,25
258,Bea,Budget/Accounting Analyst III,45.9028599,3.95435,FR,299,OK,259
259,Giacinta,Associate Professor,48.7865463,2.054647,FR,248,OK,138
260,Diarmid,Paralegal,48.8865404,2.215722,FR,42,OK,174
261,Alleen,Paralegal,49.14413620000001,6.1519975,FR,258,OK,280
262,Correy,Data Coordiator,47.3752386,-0.8453268,FR,181,OK,74
263,Tobi,Structural Analysis Engineer,48.8708001,2.166848,FR,209,OK,104
264,Edgar,Help Desk Operator,48.6405537,2.3269318,FR,34,OK,80
265,Richardo,Product Engineer,48.8693156,2.3501981,FR,8,OK,126
266,Eustacia,Analyst Programmer,44.5590244,4.7447501,FR,97,OK,173
267,Nicola,Senior Editor,46.3349544,2.789104,FR,169,OK,235
268,Crosby,Financial Advisor,49.0261841,1.1518478,FR,49,OK,76
269,Lizette,Financial Advisor,47.0615944,-0.8816138000000001,FR,232,OK,74
270,Marrissa,Accountant I,,,FR,26, MISS_COORD,26
271,Dietrich,Occupational Therapist,48.1772789,6.400366,FR,280,OK,117
272,Harbert,Director of Sales,41.6704519,-4.7135268,ES,176,OK,271
273,Giralda,Paralegal,43.6399974,1.4282563,FR,97,OK,294
274,Bowie,Physical Therapy Assistant,48.7700185,2.3508225,FR,105,OK,161
275,Derick,Research Nurse,43.4945737,5.8978018,FR,101,OK,258
276,Shanta,Structural Engineer,49.1199699,6.1650769,FR,11,OK,238
277,Marget,Environmental Specialist,48.2044234,5.942257,FR,67,OK,186
278,Carmen,Research Assistant I,45.697904,0.964671,FR,201,OK,288
279,Claus,Senior Editor,45.697904,0.964671,FR,159,OK,288
280,Laina,Editor,48.5372073,7.5002842,FR,131,OK,32
281,Shepperd,Design Engineer,48.747518,4.700132900000002,FR,179,OK,251
282,Lewie,Computer Systems Analyst I,49.6488646,1.7314817999999998,FR,28,OK,205
283,Thornie,VP Accounting,50.3171905,2.801236,FR,90,OK,43
284,Fayina,Mechanical Systems Engineer,48.7853082,2.072661,FR,41,OK,138
285,Alphard,Junior Executive,,,FR,228, MISS_COORD,228
286,Smitty,Quality Engineer,45.1934857,5.7218985,FR,235,OK,103
287,Erek,Programmer Analyst IV,44.0527811,6.1717148,FR,123,OK,77
288,Cami,VP Marketing,47.2115555,3.8260916,FR,163,OK,29
289,Woody,Web Developer III,48.1079676,-1.5212701000000002,FR,163,OK,59
290,Granthem,Assistant Professor,49.3061777,-0.5870032,FR,238,OK,149
291,Hermon,Quality Engineer,46.6698573,0.3697581,FR,264,OK,243
292,Piggy,Payment Adjustment Coordinator,40.4563733,-3.6952896,ES,10,OK,271
293,Rivy,Nuclear Power Engineer,47.407461,-1.18752,FR,123,OK,166
294,Bruis,Environmental Tech,48.8590219,2.2228583,FR,17,OK,114
295,Ardra,Financial Analyst,45.7608815,4.26286,FR,144,OK,259
296,Damaris,Programmer III,48.7212066,2.1222327,FR,283,OK,204
297,Max,Financial Analyst,47.6022755,6.2194417999999985,FR,224,OK,67
298,Gunter,Senior Cost Accountant,49.4382375,1.0598119,FR,286,OK,63
299,Tomi,Media Manager IV,45.7164219,4.8750727,FR,190,OK,50
300,Zola,Quality Control Specialist,48.9066299,2.2456603,FR,111,OK,14
301,Arv,Senior Cost Accountant,46.1839042,-0.4738335,FR,198,OK,22
302,Cesar,Senior Sales Associate,47.3752386,-0.8453268,FR,165,OK,74
303,Brittan,Analog Circuit Design manager,48.8706152,2.2289339,FR,54,OK,23
304,Joelie,Chief Design Engineer,44.1372925,4.810107,FR,274,OK,131
305,Roxanne,Information Systems Manager,49.2066705,2.0391896000000003,FR,164,OK,285
306,Gusti,Graphic Designer,44.0264621,5.0852479000000015,FR,237,OK,234
307,Gay,Physical Therapy Assistant,48.627474,2.5921846,FR,76,OK,95
308,Pavel,Recruiter,43.4945737,5.8978018,FR,32,OK,258
309,Kennan,Chief Design Engineer,48.8171378,2.4196694,FR,218,OK,78
310,Gauthier,Database Administrator IV,43.33628220000001,3.2188961,FR,171,OK,133
311,Duncan,Clinical Specialist,48.695223,2.190167,FR,190,OK,204
312,Maurise,Editor,47.407461,-1.18752,FR,24,OK,166
313,Kirstyn,Editor,48.7845598,2.0433063,FR,186,OK,138
314,Esther,General Manager,44.303454,4.5815725,FR,30,OK,131
315,Ilyse,Biostatistician II,48.8865404,2.215722,FR,65,OK,174
316,Katharine,Cost Accountant,47.6329545,7.483902199999998,FR,211,OK,110
317,Marne,Statistician III,48.695223,2.190167,FR,202,OK,204
318,Frances,Information Systems Manager,46.66789779999999,-1.4087525,FR,48,OK,46
319,Catriona,Payment Adjustment Coordinator,48.8129209,2.2385405,FR,155,OK,129
320,Elissa,Internal Auditor,46.67047120000001,-1.4244076,FR,239,OK,226
321,Agace,Database Administrator IV,43.52516660000001,-5.6379087,ES,90,OK,139
322,Templeton,Technical Writer,43.52343370000001,5.422976,FR,241,OK,137
323,Dane,Sales Associate,46.5217941,6.0221735,FR,40,OK,37
324,Erv,Physical Therapy Assistant,46.3194856,-0.4546217000000001,FR,169,OK,102
325,Kimbra,Financial Advisor,39.9658255,-0.0419877,ES,31,OK,219
326,Calida,Operator,48.006844,2.7428365,FR,53,OK,95
327,Nikaniki,Compensation Analyst,47.2550409,-1.5401497,FR,141,OK,296
328,Quincey,Graphic Designer,45.70734,5.534063,FR,37,OK,5
329,Odelle,Computer Systems Analyst III,43.4903429,5.3378155,FR,57,OK,137
330,Rahel,Environmental Specialist,45.1800316,0.7237613,FR,258,OK,19
331,Catriona,Budget/Accounting Analyst III,47.9122021,7.286872,FR,114,OK,110
332,Derek,Statistician I,47.6519866,-2.0882566,FR,79,OK,181
333,Nadean,Engineer I,47.6252225,0.277316,FR,16,OK,105
334,Ashla,Environmental Tech,47.7489727,7.350706599999999,FR,267,OK,110
335,Guntar,Human Resources Manager,49.8683919,1.1433823,FR,284,OK,63
336,Bernete,Administrative Officer,47.9962116,-4.1020654,FR,287,OK,214
337,Conrad,Senior Sales Associate,43.7441795,2.5119990000000003,FR,120,OK,20
338,Ange,GIS Technical Architect,48.250574,-1.5029858,FR,20,OK,59
339,Bo,Senior Developer,43.86290200000001,3.319109,FR,139,OK,237
340,Dyann,Statistician I,48.5308416,1.4534246000000002,FR,99,OK,1
341,Toddie,Food Chemist,47.2550409,-1.5401497,FR,7,OK,296
342,Vale,Tax Accountant,36.5052612,-6.2761016,ES,189,OK,101
343,Zedekiah,Business Systems Development Analyst,44.1946802,4.0430608,FR,15,OK,269
344,Kasey,Human Resources Assistant I,,,FR,122, MISS_COORD,122
345,Husein,Developer I,43.4945737,5.8978018,FR,46,OK,258
346,Gray,Help Desk Operator,50.2748915,3.9727365,FR,9,OK,194
347,Melodee,Pharmacist,43.2916776,-0.3696612,FR,233,OK,171
348,Jacynth,Graphic Designer,47.8225694,0.3908219,FR,237,OK,148
349,Nevil,Staff Accountant IV,49.0261841,1.1518478,FR,194,OK,76
350,Yorke,Senior Financial Analyst,45.850714,4.7852819,FR,287,OK,108
351,Deana,Analog Circuit Design manager,45.7787293,3.0857432,FR,287,OK,291
352,Casandra,Technical Writer,49.0371335,3.979371,FR,1,OK,124
353,Caddric,General Manager,47.35913660000001,2.8002946,FR,34,OK,297
354,Nikolos,Paralegal,47.9318074,5.2893597,FR,12,OK,56
355,Lyon,VP Quality Control,44.2171148,0.6352163000000001,FR,111,OK,236
356,Bjorn,Safety Technician I,43.35315429999999,-1.6300821,FR,279,OK,178
357,Pasquale,Assistant Manager,45.1934857,5.7218985,FR,261,OK,103
358,Tab,Systems Administrator III,48.0724737,7.3469006,FR,3,OK,36
359,Hansiain,Health Coach II,47.484145,6.923811,FR,264,OK,215
360,Laura,Associate Professor,48.2044234,5.942257,FR,196,OK,186
361,Jo ann,Budget/Accounting Analyst I,36.8414494,-2.4567059,ES,57,OK,201
362,Starlene,Help Desk Technician,48.0482483,-1.6329288,FR,180,OK,59
363,Farand,Chemical Engineer,48.695223,2.190167,FR,189,OK,204
364,Toby,Staff Scientist,47.2550409,-1.5401497,FR,36,OK,296
365,Khalil,Environmental Specialist,45.7790993,4.9307738,FR,198,OK,130
366,Kacey,Human Resources Manager,47.273289,-2.204647,FR,142,OK,181
367,Star,Quality Control Specialist,50.7022235,3.1685214,FR,124,OK,142
368,Bo,Human Resources Manager,42.6962642,2.8797149,FR,64,OK,58
369,Cody,Graphic Designer,45.2977605,2.5135985,FR,244,OK,136
370,Nichole,Operator,46.186211,5.9166940000000015,FR,116,OK,41
371,Briggs,Product Engineer,43.7441795,2.5119990000000003,FR,48,OK,20
372,Vasili,Automation Specialist I,45.590443,5.8930389000000005,FR,93,OK,81
373,Reinhold,Human Resources Assistant III,45.6258385,0.06298909999999999,FR,14,OK,19
374,Aretha,Quality Engineer,40.2748289,-3.7968574,ES,194,OK,271
375,Brose,Mechanical Systems Engineer,47.2154159,5.9471867,FR,106,OK,215
376,Wakefield,Financial Analyst,43.6953508,7.2559678,FR,266,OK,68
377,Aristotle,Environmental Tech,48.759003,2.323941,FR,104,OK,254
378,Lorelei,Staff Scientist,49.403331,2.8134703,FR,78,OK,273
379,Chane,Tax Accountant,48.7212066,2.1222327,FR,218,OK,204
380,Lorilyn,Accounting Assistant III,49.6488646,1.7314817999999998,FR,32,OK,205
381,Kleon,Project Manager,45.85029,3.53936,FR,75,OK,291
382,Lovell,Professor,42.8302933,-1.6299338,ES,278,OK,178
383,Clark,Senior Editor,48.64433579999999,7.721216900000001,FR,270,OK,263
384,Kristen,Registered Nurse,48.8834605,2.2335234,FR,217,OK,23
385,Rosette,Budget/Accounting Analyst II,40.378739,-3.7358924,ES,69,OK,271
386,Rhoda,Social Worker,45.1721845,5.7078052,FR,203,OK,103
387,Gordy,Chemical Engineer,43.3293419,5.3835222,FR,240,OK,137
388,Karalynn,Business Systems Development Analyst,48.8357169,2.2754517000000005,FR,29,OK,141
389,Warren,Mechanical Systems Engineer,48.3006708,4.0710348,FR,92,OK,251
390,Mandie,Operator,45.1800316,0.7237613,FR,163,OK,19
391,Howard,Recruiting Manager,50.4217341,2.8830762,FR,168,OK,135
392,Ivett,Safety Technician I,43.368364,-1.7705346000000002,FR,210,OK,178
393,Tonie,Safety Technician III,40.3319506,-3.7686545,ES,227,OK,271
394,Ali,Web Developer III,44.1675867,2.0308233,FR,60,OK,140
395,Kinny,Nuclear Power Engineer,48.958607,1.845782,FR,89,OK,175
396,Allyson,Dental Hygienist,42.5944931,-5.6195112,ES,234,OK,143
397,Eartha,Marketing Assistant,45.199035,5.110871,FR,291,OK,128
398,Avram,Developer II,48.5597333,7.7459273,FR,18,OK,221
399,Romona,Financial Analyst,46.817914,-0.626516,FR,153,OK,102
400,Thomasina,Account Representative IV,45.5436558,3.2448508,FR,33,OK,222
401,Vicki,VP Accounting,45.632343,5.112589,FR,228,OK,182
402,Kessiah,Operator,47.2174874,-1.5419505,FR,95,OK,296
403,Adolph,Health Coach II,44.1675867,2.0308233,FR,108,OK,140
404,Emmi,VP Accounting,48.9236625,2.3882228,FR,212,OK,134
405,Caesar,Sales Associate,43.7441795,2.5119990000000003,FR,258,OK,20
406,Starlin,Actuary,43.6953508,7.2559678,FR,193,OK,68
407,Dusty,VP Accounting,43.6017884,1.4040802,FR,261,OK,294
408,Kassie,Health Coach IV,49.4104,1.032621,FR,131,OK,63
409,Ignatius,Pharmacist,48.6366985,2.7912279,FR,257,OK,95
410,Daffi,VP Product Management,43.5963366,5.4044268,FR,62,OK,137
411,Angelle,Junior Executive,49.3305085,6.0730865,FR,95,OK,44
412,Jess,Associate Professor,48.8809869,2.2760839,FR,60,OK,14
413,Briny,Software Test Engineer I,45.14333720000001,1.4739649,FR,171,OK,202
414,Tanhya,Geological Engineer,49.0194225,2.4613377,FR,199,OK,195
415,Vikky,Director of Sales,49.4006213,1.1150619,FR,44,OK,63
416,Kati,Budget/Accounting Analyst III,48.69682,2.567685,FR,153,OK,95
417,Lyn,Dental Hygienist,43.2916776,-0.3696612,FR,150,OK,171
418,Tommie,Mechanical Systems Engineer,44.9263486,2.4396467,FR,101,OK,190
419,Andras,Analog Circuit Design manager,43.834535,5.0436629,FR,228,OK,150
420,Lyle,Chemical Engineer,40.9380536,0.3183792,ES,29,OK,264
421,Ronica,Technical Writer,48.8466523,2.2582125,FR,19,OK,114
422,Tory,Librarian,48.819324,2.394771,FR,296,OK,78
423,Yves,Internal Auditor,48.9782015,4.3827303,FR,70,OK,124
424,Kamillah,Pharmacist,49.5706463,3.6245097,FR,204,OK,273
425,Colene,Sales Associate,44.5394324,3.5333133,FR,253,OK,33
426,Blayne,Staff Accountant I,47.5745404,-2.3578005,FR,224,OK,181
427,Nicolis,Product Engineer,42.8970535,-8.541889900000001,ES,251,OK,279
428,Wendie,Programmer Analyst I,43.4945737,5.8978018,FR,271,OK,258
429,Magdaia,Data Coordiator,45.697904,0.964671,FR,258,OK,288
430,Marcus,GIS Technical Architect,43.66004,7.214992999999999,FR,48,OK,68
431,Lauraine,VP Accounting,43.0429124,1.9038837,FR,46,OK,220
432,Milena,Payment Adjustment Coordinator,,,FR,140, MISS_COORD,140
433,Chlo,Research Assistant IV,47.3752386,-0.8453268,FR,274,OK,74
434,Conant,Quality Control Specialist,47.2215999,5.9675962999999985,FR,124,OK,215
435,Tamarra,Analog Circuit Design manager,43.0429124,1.9038837,FR,76,OK,220
436,Prent,Marketing Assistant,48.8466523,2.2582125,FR,234,OK,114
437,Aldric,VP Quality Control,43.0429124,1.9038837,FR,190,OK,220
438,Mylo,Chemical Engineer,43.2916776,-0.3696612,FR,273,OK,171
439,Evyn,Assistant Media Planner,48.7528373,2.5304644,FR,70,OK,72
440,Leoline,Speech Pathologist,43.59585429999999,5.1190026,FR,163,OK,137
441,Dorey,Health Coach III,49.8990161,3.3651417,FR,191,OK,227
442,Arlyne,Sales Representative,42.4914204,-2.522269,ES,65,OK,39
443,Dee,VP Accounting,43.4968733,-1.4703339,FR,212,OK,178
444,Fionnula,Editor,28.084612100000005,-15.4331673,ES,14, BAD_COORD,14
445,Maryjane,Community Outreach Specialist,43.4717283,-3.7866915,ES,83,OK,39
446,Parsifal,Environmental Specialist,47.5745404,-2.3578005,FR,169,OK,181
447,Rahel,Food Chemist,43.4945737,5.8978018,FR,76,OK,258
448,Dacy,Pharmacist,43.7883496,4.9548261,FR,32,OK,150
449,Ari,Technical Writer,47.2550409,-1.5401497,FR,136,OK,296
450,Dulce,Internal Auditor,45.2977605,2.5135985,FR,254,OK,136
451,Emmett,Assistant Manager,46.5993244,-1.1457859,FR,231,OK,46
452,Aland,Payment Adjustment Coordinator,39.873363,-4.0414005,ES,284,OK,271
453,Mala,Senior Editor,43.7441795,2.5119990000000003,FR,159,OK,20
454,Nanny,Safety Technician II,48.9089753,2.3011787,FR,267,OK,257
455,Penelope,Legal Assistant,48.830394,2.2372822999999995,FR,162,OK,114
456,Mead,GIS Technical Architect,49.0301146,2.2509675,FR,107,OK,165
457,Grantley,Human Resources Assistant IV,48.7525724,2.3881323,FR,155,OK,274
458,Cristabel,Staff Accountant II,48.3728929,-4.212758999999998,FR,282,OK,241
459,Cody,Developer II,44.386415,-0.318174,FR,169,OK,207
460,Egon,Assistant Media Planner,47.8215045,7.5409869999999986,FR,253,OK,110
461,Waiter,Senior Developer,44.1675867,2.0308233,FR,90,OK,140
462,Hannah,Project Manager,46.66789779999999,-1.4087525,FR,68,OK,46
463,Cristie,Mechanical Systems Engineer,46.322577,-0.4654102,FR,63,OK,102
464,Bryant,Sales Associate,44.8055893,-0.630617,FR,272,OK,212
465,Abie,Analog Circuit Design manager,43.616783700000006,7.0125073,FR,108,OK,122
466,Adena,Office Assistant III,47.17532,-1.6901491999999998,FR,180,OK,276
467,Noak,Occupational Therapist,46.6328109,-1.811786,FR,211,OK,226
468,Vaughan,Editor,50.667396,3.0751792,FR,271,OK,267
469,Sancho,Research Associate,45.396383,4.325896299999999,FR,149,OK,82
470,Ursa,Professor,43.5963366,5.4044268,FR,76,OK,137
471,Shelagh,Professor,48.1504081,-1.6807957999999998,FR,147,OK,59
472,Sigismondo,Account Representative II,43.4945737,5.8978018,FR,75,OK,258
473,Piper,Community Outreach Specialist,41.4904044,2.0776887,ES,227,OK,264
474,Lucas,Environmental Tech,39.873363,-4.0414005,ES,165,OK,271
475,Leslie,Programmer I,45.1934857,5.7218985,FR,263,OK,103
476,Samaria,VP Accounting,48.2216277,6.4359118,FR,162,OK,117
477,Tatum,Staff Scientist,49.33600000000001,4.0935629,FR,130,OK,124
478,Carlynne,Tax Accountant,48.9648921,2.2558072,FR,223,OK,64
479,Neil,Programmer Analyst IV,49.0301146,2.2509675,FR,1,OK,165
480,Roseanna,Assistant Media Planner,44.6603148,-1.1648341,FR,210,OK,260
481,Andras,Research Assistant IV,41.4378689,2.196618,ES,222,OK,264
482,Adham,Senior Developer,40.50047100000001,-3.6673942,ES,206,OK,271
483,Pasquale,Structural Analysis Engineer,46.2983568,-0.8937702,FR,42,OK,262
484,Jess,Automation Specialist II,44.346784,5.8855505,FR,197,OK,153
485,Waldo,Budget/Accounting Analyst I,49.403331,2.8134703,FR,1,OK,273
486,Griffy,Financial Analyst,47.38605070000001,0.7236073000000001,FR,61,OK,7
487,Pepe,Developer II,43.6953508,7.2559678,FR,168,OK,68
488,Timoteo,Actuary,43.704612,7.261933,FR,222,OK,68
489,Conney,Executive Secretary,48.5111249,-2.7674407000000003,FR,227,OK,217
490,Lin,Senior Developer,46.7152613,-1.4517985,FR,54,OK,226
491,Juliana,Analog Circuit Design manager,49.50488720000001,5.694475700000001,FR,9,OK,44
492,Fransisco,Food Chemist,48.8579687,2.5764306,FR,105,OK,162
493,Fredericka,Compensation Analyst,45.2384571,-0.8106708,FR,289,OK,34
494,Jules,Food Chemist,43.49883970000001,4.9789040999999985,FR,12,OK,168
495,Charles,Operator,44.1675867,2.0308233,FR,113,OK,140
496,Madlin,Editor,48.6360664,-2.0280739,FR,226,OK,59
497,Shaina,Statistician IV,48.689836,6.17445,FR,198,OK,231
498,Josi,Senior Sales Associate,45.130018,3.562575,FR,138,OK,12
499,Tedd,Assistant Media Planner,48.5851876,7.7342943,FR,114,OK,221
500,Northrup,Staff Scientist,46.2993504,4.8265786,FR,200,OK,17
501,Ulysses,Human Resources Assistant IV,50.6793242,3.2510427,FR,170,OK,142
502,Kory,Occupational Therapist,49.116169,6.1807997000000015,FR,299,OK,238
503,Renard,Cost Accountant,42.8302933,-1.6299338,ES,139,OK,178
504,Ade,Recruiting Manager,47.2623398,-0.1393138,FR,287,OK,105
505,Marshall,VP Accounting,49.2221045,-0.4440154000000001,FR,255,OK,192
506,Jermayne,Quality Engineer,44.8055893,-0.630617,FR,39,OK,212
507,Theresita,Nuclear Power Engineer,46.6473105,0.813275,FR,238,OK,261
508,Francyne,Design Engineer,49.14413620000001,6.1519975,FR,15,OK,280
509,Mattie,Office Assistant II,45.742007,3.199309,FR,146,OK,291
510,Bentley,Developer III,46.6473105,0.813275,FR,280,OK,261
511,Hannah,Analyst Programmer,44.1946802,4.0430608,FR,207,OK,269
512,Priscella,Graphic Designer,47.3752386,-0.8453268,FR,123,OK,74
513,Stefano,Research Assistant I,44.346784,5.8855505,FR,127,OK,153
514,Bethina,Associate Professor,50.4734865,2.9394741,FR,161,OK,93
515,Grange,Computer Systems Analyst II,48.8120404,2.2718631,FR,261,OK,129
516,Tobey,Software Test Engineer I,48.8693156,2.3501981,FR,288,OK,126
517,Guenevere,Accounting Assistant I,47.8215045,7.5409869999999986,FR,96,OK,110
518,Fredericka,Senior Cost Accountant,42.6962642,2.8797149,FR,64,OK,58
519,Bo,Analyst Programmer,45.2977605,2.5135985,FR,165,OK,136
520,Becky,Human Resources Manager,49.233768100000006,2.8874923,FR,151,OK,245
521,Bartlet,Help Desk Technician,48.830394,2.2372822999999995,FR,2,OK,114
522,Madelene,Senior Financial Analyst,48.892701,2.233089,FR,214,OK,174
523,Angel,Help Desk Operator,45.644535,5.868937,FR,141,OK,300
524,Kellen,Product Engineer,46.7152613,-1.4517985,FR,144,OK,226
525,Vevay,Project Manager,50.5429237,3.086469,FR,252,OK,70
526,Godiva,Analyst Programmer,49.18455170000001,-0.3553901,FR,62,OK,120
527,Agnola,Automation Specialist II,49.4382375,1.0598119,FR,106,OK,63
528,Karlotte,Nuclear Power Engineer,43.1283145,5.9294606,FR,90,OK,90
529,Pamelina,Marketing Assistant,,,FR,121, MISS_COORD,121
530,Finn,Pharmacist,49.476996,0.1639479,FR,139,OK,35
531,Humfrid,VP Sales,47.7489727,7.350706599999999,FR,64,OK,110
532,Corella,Project Manager,48.9802395,2.612562,FR,14,OK,287
533,Jacky,Internal Auditor,47.4861398,-1.7442022,FR,123,OK,181
534,Blondy,Dental Hygienist,48.9378251,2.1570562,FR,17,OK,123
535,Barnabe,Electrical Engineer,47.35913660000001,2.8002946,FR,73,OK,297
536,Tedmund,Quality Control Specialist,48.294118,4.0675057,FR,179,OK,251
537,Karyl,Speech Pathologist,45.8359543,5.0634248,FR,144,OK,17
538,Rebbecca,Food Chemist,45.0478491,5.0682113,FR,197,OK,128
539,Calypso,Information Systems Manager,49.1199699,6.1650769,FR,115,OK,238
540,Torrin,Staff Scientist,48.0515029,6.535628,FR,204,OK,117
541,Maxy,Mechanical Systems Engineer,44.2136985,3.9996505,FR,66,OK,269
542,Kynthia,Software Consultant,48.792001,2.39851,FR,89,OK,274
543,Kristi,Operator,49.6355347,-1.6272462,FR,66,OK,2
544,Arline,Human Resources Assistant III,47.6519866,-2.0882566,FR,277,OK,181
545,Emory,Human Resources Manager,46.8330256,-0.7845859000000001,FR,29,OK,46
546,Dorena,Assistant Manager,49.2706048,-1.6509128,FR,29,OK,2
547,Maribel,Research Nurse,39.609109,2.6362975,ES,239,OK,169
548,Sergent,Media Manager I,47.99561729999999,0.1924459,FR,138,OK,284
549,Enid,Assistant Manager,47.666899,-3.022273,FR,13,OK,145
550,Gratia,Software Engineer III,48.0395425,-0.705495,FR,140,OK,229
551,Sheilah,Engineer III,48.911035,2.16555,FR,3,OK,123
552,Delmore,Social Worker,47.8417718,-0.3419882,FR,278,OK,105
553,Rabbi,Financial Analyst,43.1283145,5.9294606,FR,110,OK,90
554,Michel,Food Chemist,47.7526314,-2.285174,FR,99,OK,181
555,Adan,Food Chemist,43.4598651,-3.8057968,ES,86,OK,39
556,Marijn,Executive Secretary,43.6943099,2.0376775,FR,3,OK,177
557,Darrel,Analog Circuit Design manager,47.2550409,-1.5401497,FR,173,OK,296
558,Hercules,Web Designer I,48.8610504,2.3237084,FR,89,OK,282
559,Kimmi,Automation Specialist II,,,FR,240, MISS_COORD,240
560,Romonda,Technical Writer,49.16981060000001,6.1200844000000005,FR,93,OK,280
561,Cleo,Accounting Assistant I,47.4441206,-0.5572458,FR,1,OK,74
562,Vania,Cost Accountant,45.88926710000001,0.3046171,FR,81,OK,22
563,Aurelia,Marketing Manager,48.9098794,2.2829955,FR,241,OK,257
564,Garnette,Senior Editor,48.8809869,2.2760839,FR,200,OK,14
565,Temp,Sales Associate,47.35913660000001,2.8002946,FR,100,OK,297
566,Andra,Chemical Engineer,44.7721717,-0.6995220999999999,FR,129,OK,207
567,Ayn,Assistant Manager,48.7980515,2.4882911,FR,240,OK,109
568,Percival,Administrative Officer,49.4382375,1.0598119,FR,164,OK,63
569,Artus,Chief Design Engineer,48.1164447,-1.7128603,FR,74,OK,59
570,Rudolf,Desktop Support Technician,45.9120061,6.1549499,FR,63,OK,159
571,Currey,Computer Systems Analyst I,47.3752386,-0.8453268,FR,113,OK,74
572,Kort,Budget/Accounting Analyst IV,48.73812589999999,2.3536083,FR,267,OK,254
573,Chas,Quality Engineer,48.2660539,0.768419,FR,25,OK,284
574,Ashely,Human Resources Assistant I,47.2115555,3.8260916,FR,1,OK,29
575,Fons,Help Desk Technician,43.553302,6.574528999999999,FR,82,OK,122
576,Jewelle,Registered Nurse,47.35913660000001,2.8002946,FR,67,OK,297
577,Pier,Data Coordiator,48.8693156,2.3501981,FR,118,OK,126
578,Annalise,Quality Control Specialist,47.895835,1.853886,FR,227,OK,127
579,Abelard,Senior Cost Accountant,48.1552902,-1.7123278000000002,FR,272,OK,59
580,Cristiano,Dental Hygienist,,,FR,158, MISS_COORD,158
581,Lynna,Accounting Assistant III,47.2550409,-1.5401497,FR,26,OK,296
582,Steward,Environmental Tech,47.2550409,-1.5401497,FR,9,OK,296
583,Dell,Account Coordinator,48.695223,2.190167,FR,209,OK,204
584,Aeriel,Programmer Analyst II,48.07623270000001,-0.7609009,FR,183,OK,208
585,Laurene,Executive Secretary,43.0429124,1.9038837,FR,234,OK,220
586,Rochette,Librarian,39.463861,-0.3689508,ES,34,OK,219
587,Aggie,Internal Auditor,45.1749035,5.3067172,FR,102,OK,128
588,Suzy,Speech Pathologist,48.689836,6.17445,FR,10,OK,231
589,Merle,Automation Specialist III,43.81771679999999,4.343135,FR,43,OK,100
590,Izaak,Environmental Tech,47.666307,-2.7887335,FR,138,OK,145
591,Ertha,Paralegal,48.5851876,7.7342943,FR,271,OK,221
592,Sofia,Paralegal,49.2752229,1.207968,FR,72,OK,76
593,Adolf,Automation Specialist III,46.2983568,-0.8937702,FR,157,OK,262
594,Bethany,Web Designer II,44.346784,5.8855505,FR,154,OK,153
595,Anselma,Teacher,43.2916776,-0.3696612,FR,113,OK,171
596,Fredericka,Design Engineer,48.8693156,2.3501981,FR,1,OK,126
597,Jory,Systems Administrator IV,46.280212,-0.4601725,FR,273,OK,102
598,Berta,Legal Assistant,45.90332670000001,4.934624,FR,38,OK,17
599,Farica,Professor,49.1931313,-0.3907558,FR,118,OK,192
600,Ky,Research Nurse,46.4830794,4.6072477,FR,297,OK,29
601,Raphaela,Food Chemist,48.759003,2.323941,FR,78,OK,254
602,Katuscha,Marketing Assistant,43.4945737,5.8978018,FR,107,OK,258
603,Tani,Senior Cost Accountant,43.4945737,5.8978018,FR,279,OK,258
604,Inge,General Manager,46.2501181,5.1140864,FR,64,OK,88
605,Kellby,Social Worker,43.4945737,5.8978018,FR,4,OK,258
606,Gino,Media Manager III,48.8708001,2.166848,FR,139,OK,104
607,Niko,Associate Professor,47.8215045,7.5409869999999986,FR,255,OK,110
608,Hephzibah,Structural Engineer,47.3752386,-0.8453268,FR,81,OK,74
609,Timi,Desktop Support Technician,43.49883970000001,4.9789040999999985,FR,12,OK,168
610,Chris,Database Administrator II,49.03448529999999,2.2178783,FR,7,OK,165
611,Maynard,Software Consultant,45.4726625,4.3812793,FR,300,OK,82
612,Zebedee,Editor,47.3411618,0.723116,FR,26,OK,7
613,Seward,Data Coordiator,44.0643415,1.1011089,FR,149,OK,198
614,Trent,Senior Editor,28.084612100000005,-15.4331673,ES,177, BAD_COORD,177
615,Prentiss,Senior Sales Associate,43.4945737,5.8978018,FR,219,OK,258
616,Carissa,Geologist I,48.5851876,7.7342943,FR,186,OK,221
617,Dorthea,Dental Hygienist,45.90332670000001,4.934624,FR,11,OK,17
618,Rafaello,Research Associate,43.8324929,4.3662321,FR,231,OK,116
619,Cletis,Administrative Assistant IV,48.250574,-1.5029858,FR,132,OK,59
620,Jacquie,Geological Engineer,48.732568,2.2889821,FR,34,OK,27
621,Arel,Professor,49.034461,2.3496109,FR,239,OK,195
622,Leora,Software Consultant,49.76830379999999,4.7189252,FR,9,OK,124
623,Flss,Community Outreach Specialist,43.963917,4.796809,FR,185,OK,89
624,Xerxes,Nuclear Power Engineer,45.850714,4.7852819,FR,154,OK,108
625,Palmer,Administrative Officer,43.52343370000001,5.422976,FR,10,OK,137
626,Etienne,Health Coach IV,45.1238884,2.9802744,FR,11,OK,136
627,Eustacia,Payment Adjustment Coordinator,43.0429124,1.9038837,FR,253,OK,220
628,Antoni,Physical Therapy Assistant,48.9270449,2.3265854,FR,86,OK,134
629,Riobard,Programmer I,48.3156651,0.839002,FR,65,OK,1
630,Caitrin,Financial Analyst,44.208171,0.620903,FR,180,OK,236
631,Elsinore,Senior Quality Engineer,48.732568,2.2889821,FR,98,OK,27
632,Zeb,Marketing Assistant,48.8708001,2.166848,FR,39,OK,104
633,Hephzibah,General Manager,44.9280296,4.8932938,FR,258,OK,62
634,Shirleen,Software Test Engineer III,49.1931313,-0.3907558,FR,107,OK,192
635,Roselia,Business Systems Development Analyst,37.4852899,-2.2959788,ES,102,OK,201
636,Kevyn,Database Administrator I,49.039076,2.074954,FR,270,OK,66
637,Sabine,Assistant Media Planner,48.804517,-0.7467014,FR,140,OK,2
638,Jaquenette,Operator,48.890054,2.2372792,FR,283,OK,23
639,Brande,Payment Adjustment Coordinator,48.403405,7.456782,FR,106,OK,32
640,Harrie,Food Chemist,50.5213838,2.6404239,FR,238,OK,135
641,Alameda,General Manager,48.99908129999999,1.6899473000000005,FR,299,OK,285
642,Scarface,Senior Financial Analyst,42.6962642,2.8797149,FR,71,OK,58
643,Linus,Pharmacist,36.8414494,-2.4567059,ES,243,OK,201
644,Celie,Speech Pathologist,44.9532555,2.8218035,FR,237,OK,190
645,Bartlet,Clinical Specialist,45.1905186,0.7423124,FR,41,OK,288
646,Zollie,VP Quality Control,47.666307,-2.7887335,FR,239,OK,145
647,Stormy,GIS Technical Architect,45.6258385,0.06298909999999999,FR,124,OK,19
648,Kassi,Account Coordinator,47.9909521,0.1971772,FR,262,OK,284
649,Suzette,Clinical Specialist,48.60114779999999,-1.9817089,FR,276,OK,59
650,Bennett,Marketing Manager,,,FR,236, MISS_COORD,236
651,Jilli,Safety Technician IV,48.8466523,2.2582125,FR,124,OK,114
652,Kent,Administrative Officer,48.8693156,2.3501981,FR,181,OK,126
653,Eartha,Administrative Officer,48.7212066,2.1222327,FR,186,OK,204
654,Quint,Sales Representative,44.1675867,2.0308233,FR,247,OK,140
655,Fowler,Human Resources Assistant IV,46.5993244,-1.1457859,FR,44,OK,46
656,Faber,Senior Financial Analyst,48.9003986,2.2166408,FR,86,OK,104
657,Roy,Cost Accountant,43.616783700000006,7.0125073,FR,42,OK,122
658,Camella,Desktop Support Technician,43.2894617,5.3563232,FR,180,OK,137
659,Vanna,Dental Hygienist,49.039076,2.074954,FR,232,OK,66
660,Corabel,Nurse Practicioner,48.7997482,2.4699259,FR,204,OK,125
661,Fawn,Electrical Engineer,47.35913660000001,2.8002946,FR,185,OK,297
662,Felisha,Project Manager,49.403331,2.8134703,FR,196,OK,273
663,Innis,Graphic Designer,45.311057,5.5463235,FR,262,OK,81
664,Bartlett,Biostatistician III,44.2642895,5.940651,FR,180,OK,77
665,Cleavland,Safety Technician IV,43.952499,4.804022,FR,164,OK,89
666,Anissa,Human Resources Assistant I,42.45765479999999,-2.4407498,ES,44,OK,39
667,Deeyn,Sales Representative,49.03448529999999,2.2178783,FR,137,OK,165
668,Afton,Statistician IV,28.132879600000006,-15.4393074,ES,206, BAD_COORD,206
669,Diann,VP Product Management,43.66004,7.214992999999999,FR,249,OK,68
670,Burnaby,Design Engineer,46.80876370000001,1.6937962,FR,130,OK,199
671,Derward,Information Systems Manager,36.5052612,-6.2761016,ES,12,OK,101
672,Tiphany,Statistician IV,47.3752386,-0.8453268,FR,78,OK,74
673,Ed,Electrical Engineer,45.697904,0.964671,FR,139,OK,288
674,Ranique,Human Resources Manager,48.7855359,2.0425663,FR,91,OK,138
675,Lilian,Account Executive,45.311057,5.5463235,FR,91,OK,81
676,Harley,Software Engineer I,43.6943099,2.0376775,FR,6,OK,177
677,Kessia,Food Chemist,45.2977605,2.5135985,FR,292,OK,136
678,Stacy,Marketing Assistant,47.3640936,0.7259705,FR,33,OK,7
679,Ethe,Quality Control Specialist,46.322577,-0.4654102,FR,242,OK,102
680,Waverly,Nurse,45.180548,0.768949,FR,37,OK,189
681,Cyndi,Recruiter,43.4945737,5.8978018,FR,277,OK,258
682,Larry,Analyst Programmer,43.8317876,4.3686291,FR,28,OK,116
683,Faina,Research Nurse,49.039076,2.074954,FR,5,OK,66
684,Anneliese,Software Consultant,50.1559065,3.2571934,FR,187,OK,227
685,Isobel,Mechanical Systems Engineer,50.483457,3.003076,FR,12,OK,93
686,Cirillo,Editor,43.3152889,-1.9514657,ES,27,OK,178
687,Jules,Research Associate,48.7528373,2.5304644,FR,157,OK,72
688,Deerdre,Statistician IV,49.6488646,1.7314817999999998,FR,176,OK,205
689,Tim,VP Quality Control,47.5113895,1.820875,FR,233,OK,127
690,Price,Structural Analysis Engineer,48.7946784,2.3067496,FR,192,OK,129
691,Marianne,Social Worker,47.3675629,2.901637,FR,7,OK,297
692,Patten,Safety Technician III,48.8708001,2.166848,FR,111,OK,104
693,Lyndsey,Nurse,48.8693156,2.3501981,FR,57,OK,126
694,Cherilynn,Legal Assistant,49.189451,-0.8049350000000001,FR,236,OK,2
695,Clarette,Account Coordinator,42.930418,1.7243511000000002,FR,171,OK,71
696,Sadie,Engineer I,48.835233,2.5198901,FR,193,OK,125
697,Angeline,Quality Control Specialist,45.5673785,5.9481999000000005,FR,186,OK,81
698,Dedra,Professor,49.0096906,2.5479245,FR,2,OK,287
699,Reena,VP Marketing,48.8120404,2.2718631,FR,111,OK,129
700,Pet,Pharmacist,48.8466523,2.2582125,FR,130,OK,114
701,Filberto,Community Outreach Specialist,43.0429124,1.9038837,FR,268,OK,220
702,Ursuline,Mechanical Systems Engineer,45.6258385,0.06298909999999999,FR,34,OK,19
703,Olive,Engineer IV,47.6651939,-2.7524402,FR,174,OK,145
704,Mord,Recruiter,42.8302933,-1.6299338,ES,103,OK,178
705,Marylinda,VP Product Management,45.7039688,5.9492762,FR,60,OK,300
706,Helsa,Desktop Support Technician,42.4423768,-8.6463086,ES,23,OK,196
707,Gaby,Civil Engineer,45.70734,5.534063,FR,114,OK,5
708,Boris,Structural Engineer,48.7803815,2.4549884,FR,287,OK,72
709,Modesty,Biostatistician IV,44.8501354,-0.5702805000000001,FR,298,OK,212
710,Norbie,Staff Accountant III,43.0429124,1.9038837,FR,153,OK,220
711,Dyanne,Senior Sales Associate,49.2937975,3.7636128,FR,236,OK,124
712,Waldon,VP Product Management,38.2911575,-0.6322615,ES,85,OK,164
713,Clemmy,Assistant Manager,48.9875598,2.2971584,FR,127,OK,64
714,Rayna,Executive Secretary,46.068811,6.568907,FR,135,OK,159
715,Chiarra,Programmer I,45.601784,5.1310410000000015,FR,203,OK,5
716,Russell,Nurse,46.7152613,-1.4517985,FR,54,OK,226
717,Martainn,Computer Systems Analyst III,48.7997482,2.4699259,FR,296,OK,125
718,Tad,Sales Representative,48.9897895,2.2868727000000004,FR,61,OK,64
719,Marshall,Financial Advisor,43.0429124,1.9038837,FR,114,OK,220
720,Tonia,Account Representative I,43.4945737,5.8978018,FR,178,OK,258
721,Darrell,Geologist IV,50.6503044,2.9982752,FR,226,OK,267
722,Heidie,Environmental Tech,48.8610504,2.3237084,FR,159,OK,282
723,Helenka,Desktop Support Technician,47.99561729999999,0.1924459,FR,257,OK,284
724,Quent,Safety Technician II,49.03164500000001,7.950014,FR,246,OK,263
725,Brynna,Information Systems Manager,45.1721845,5.7078052,FR,263,OK,103
726,Lindsay,Web Developer I,48.529165,-2.7586364,FR,46,OK,217
727,Johannes,Speech Pathologist,46.1167,3.4167,FR,282,OK,235
728,Adrianne,Engineer III,47.8417718,-0.3419882,FR,15,OK,105
729,Julian,Financial Analyst,35.8941687,-5.2919563,ES,145, BAD_COORD,145
730,Angelo,Sales Representative,47.594843,1.3155028,FR,182,OK,160
731,Gris,Programmer II,48.6066876,2.3023877999999995,FR,264,OK,85
732,Richmond,Social Worker,49.387383,1.0839961,FR,160,OK,63
733,Jessy,Executive Secretary,43.4945737,5.8978018,FR,295,OK,258
734,Duke,Quality Engineer,45.9120061,6.1549499,FR,53,OK,159
735,Elvyn,Assistant Manager,43.4945737,5.8978018,FR,112,OK,258
736,Joleen,VP Product Management,48.3728929,-4.212758999999998,FR,36,OK,241
737,Chickie,Health Coach I,47.17532,-1.6901491999999998,FR,202,OK,276
738,Janine,Pharmacist,,,FR,175, MISS_COORD,175
739,Garvey,Account Executive,48.4339701,0.098598,FR,95,OK,249
740,Sigfrid,Occupational Therapist,43.4945737,5.8978018,FR,234,OK,258
741,Bebe,Recruiter,49.1931313,-0.3907558,FR,193,OK,192
742,Eldredge,Human Resources Manager,37.78010689999999,-3.8235525,ES,225,OK,99
743,Lincoln,Human Resources Manager,43.86290200000001,3.319109,FR,256,OK,237
744,Jabez,Design Engineer,49.4648362,2.8898334,FR,156,OK,273
745,Hieronymus,Safety Technician I,37.970285,-1.1424989,ES,288,OK,164
746,Tyrone,Clinical Specialist,48.7720518,2.4921227000000004,FR,169,OK,72
747,Jodie,Administrative Assistant III,43.7441795,2.5119990000000003,FR,141,OK,20
748,Farley,Web Developer IV,45.697904,0.964671,FR,79,OK,288
749,Candida,Marketing Manager,45.764339,4.768427,FR,117,OK,108
750,Neel,Senior Financial Analyst,48.5851876,7.7342943,FR,127,OK,221
751,Inga,Environmental Tech,43.470556,1.4974024,FR,197,OK,158
752,Marja,Business Systems Development Analyst,43.6167208,3.8299106,FR,84,OK,38
753,Garry,Senior Cost Accountant,48.8276508,1.9697936000000005,FR,214,OK,175
754,Kristel,Community Outreach Specialist,48.9898219,1.7032903,FR,123,OK,175
755,Laird,Administrative Assistant III,44.1946802,4.0430608,FR,298,OK,269
756,Hendrik,Senior Editor,48.690168,-1.3699309,FR,132,OK,59
757,Kelbee,Nurse Practicioner,50.6793242,3.2510427,FR,88,OK,142
758,Addie,Physical Therapy Assistant,43.8317876,4.3686291,FR,97,OK,116
759,Randal,Financial Advisor,,,FR,132, MISS_COORD,132
760,Pris,Statistician III,43.298735,5.382597799999999,FR,217,OK,137
761,Odell,Technical Writer,45.052484,4.8398662,FR,158,OK,11
762,Laurella,Registered Nurse,48.589056,2.2458778,FR,173,OK,85
763,Teddy,Web Designer I,48.759003,2.323941,FR,234,OK,254
764,Con,Office Assistant I,44.8055893,-0.630617,FR,193,OK,212
765,Bret,Teacher,41.6465777,-4.7497457,ES,267,OK,271
766,Lurlene,Project Manager,46.3194856,-0.4546217000000001,FR,218,OK,102
767,Pall,Nurse Practicioner,46.1839042,-0.4738335,FR,260,OK,22
768,Parry,Recruiting Manager,43.9235435,2.141706,FR,147,OK,140
769,Inger,Internal Auditor,45.6258385,0.06298909999999999,FR,26,OK,19
770,Falkner,Developer IV,44.1675867,2.0308233,FR,195,OK,140
771,Ailene,Staff Scientist,46.068811,6.568907,FR,262,OK,159
772,Desi,Chief Design Engineer,43.6121586,3.8626074,FR,32,OK,38
773,Reggis,Senior Editor,48.8579687,2.5764306,FR,111,OK,162
774,Lewes,Statistician III,47.594843,1.3155028,FR,20,OK,160
775,Stephen,VP Accounting,45.70734,5.534063,FR,31,OK,5
776,Terrill,Research Associate,46.1408985,2.8862985,FR,293,OK,235
777,Mathe,Senior Cost Accountant,43.4945737,5.8978018,FR,60,OK,258
778,Nadine,Marketing Manager,43.8324929,4.3662321,FR,95,OK,116
779,Danie,Product Engineer,44.3538674,2.9200826,FR,61,OK,33
780,Ethe,Engineer IV,48.0482483,-1.6329288,FR,161,OK,59
781,Pris,Research Associate,48.9897895,2.2868727000000004,FR,151,OK,64
782,Brittani,Chief Design Engineer,47.3752386,-0.8453268,FR,173,OK,74
783,Milissent,Staff Scientist,46.9874505,3.1506645,FR,171,OK,106
784,Gretel,Junior Executive,43.4945737,5.8978018,FR,292,OK,258
785,Conni,Social Worker,47.785421,-3.2602564,FR,76,OK,145
786,Natty,Librarian,48.8693156,2.3501981,FR,202,OK,126
787,Cele,Information Systems Manager,48.8537451,2.53823,FR,240,OK,162
788,Frieda,Structural Analysis Engineer,47.78096160000001,-2.1084626,FR,97,OK,181
789,Cortney,Project Manager,49.4263976,2.0887457,FR,77,OK,205
790,Nefen,Data Coordiator,43.704612,7.261933,FR,53,OK,68
791,Kellia,Actuary,45.8359543,5.0634248,FR,193,OK,17
792,Gretna,Help Desk Operator,48.8335842,2.3757659,FR,126,OK,78
793,Elysia,Teacher,44.2874089,1.997385,FR,15,OK,140
794,Benedict,Web Designer II,49.2958555,4.3603508,FR,282,OK,124
795,Wilbert,Food Chemist,48.7212066,2.1222327,FR,23,OK,204
796,Nanette,Software Test Engineer II,45.7164219,4.8750727,FR,85,OK,50
797,Kat,Software Consultant,48.6140715,2.4739044,FR,92,OK,167
798,Tabby,VP Accounting,48.8129209,2.2385405,FR,41,OK,129
799,Zared,Financial Advisor,45.137411,3.812874,FR,201,OK,12
800,Gabriella,Civil Engineer,48.8610504,2.3237084,FR,214,OK,282
801,Mollee,Biostatistician II,,,FR,162, MISS_COORD,162
802,Gae,Structural Analysis Engineer,46.8179207,0.5465548000000001,FR,251,OK,261
803,Jannelle,Social Worker,45.1800316,0.7237613,FR,228,OK,19
804,Glynnis,Office Assistant II,43.2916776,-0.3696612,FR,9,OK,171
805,Mercy,Automation Specialist II,43.609798,1.495596,FR,193,OK,132
806,Marina,Research Nurse,49.1606317,6.9179709,FR,141,OK,290
807,Randene,Clinical Specialist,47.1837657,3.0182755,FR,165,OK,106
808,Mallissa,Help Desk Technician,45.788378,3.1331436000000004,FR,299,OK,291
809,Alexei,Budget/Accounting Analyst III,43.4945737,5.8978018,FR,110,OK,258
810,Auguste,Product Engineer,43.473892,5.367851,FR,23,OK,137
811,Sallyann,Account Executive,49.757096,0.375789,FR,153,OK,63
812,Crissie,Senior Financial Analyst,43.7441795,2.5119990000000003,FR,286,OK,20
813,Karoly,Financial Analyst,43.8324929,4.3662321,FR,150,OK,116
814,Alleen,Nurse,49.03164500000001,7.950014,FR,150,OK,263
815,Marquita,Analog Circuit Design manager,48.8218211,2.3999815,FR,99,OK,78
816,Carlee,Software Engineer I,44.1012172,3.0792713,FR,198,OK,20
817,Manny,VP Quality Control,47.9318074,5.2893597,FR,292,OK,56
818,Lanny,Executive Secretary,43.4945737,5.8978018,FR,209,OK,258
819,Dinny,Data Coordiator,48.8357169,2.2754517000000005,FR,250,OK,141
820,Tallie,Human Resources Manager,45.88926710000001,0.3046171,FR,61,OK,22
821,Camella,Community Outreach Specialist,45.180548,0.768949,FR,298,OK,189
822,Aeriel,Clinical Specialist,49.8683919,1.1433823,FR,274,OK,63
823,Marcelia,Systems Administrator II,38.3628307,-0.5210564999999999,ES,194,OK,219
824,Elayne,Software Test Engineer III,42.6962642,2.8797149,FR,145,OK,58
825,Rolland,Internal Auditor,47.4441206,-0.5572458,FR,166,OK,74
826,Trevor,Mechanical Systems Engineer,48.7878212,2.0441607,FR,139,OK,138
827,Dede,VP Sales,45.638468,0.129895,FR,240,OK,19
828,Lucas,Senior Cost Accountant,50.5429237,3.086469,FR,223,OK,70
829,Kathleen,Account Executive,43.4945737,5.8978018,FR,82,OK,258
830,Heinrik,Staff Scientist,49.89053679999999,2.3081396,FR,237,OK,247
831,Jacklyn,Social Worker,46.2506074,5.1133935,FR,271,OK,88
832,Kristofor,Media Manager I,38.994349,-1.8585424,ES,118,OK,164
833,Cassandry,Tax Accountant,43.7441795,2.5119990000000003,FR,213,OK,20
834,Justinn,Database Administrator III,49.8683919,1.1433823,FR,153,OK,63
835,Gard,Engineer III,43.1598675,-0.8926089,FR,284,OK,265
836,Noak,Assistant Media Planner,44.1372925,4.810107,FR,203,OK,131
837,Phyllis,Assistant Media Planner,43.3152889,-1.9514657,ES,242,OK,178
838,Rey,Business Systems Development Analyst,48.7997482,2.4699259,FR,108,OK,125
839,Guinna,Office Assistant III,48.07623270000001,-0.7609009,FR,177,OK,208
840,Reinwald,Senior Sales Associate,40.50047100000001,-3.6673942,ES,133,OK,271
841,Webster,Computer Systems Analyst II,48.509075,-2.7383235,FR,199,OK,217
842,Coleman,VP Quality Control,43.1283145,5.9294606,FR,14,OK,90
843,Guendolen,Staff Scientist,43.4945737,5.8978018,FR,213,OK,258
844,Isaak,Project Manager,45.6629694,6.3760602,FR,248,OK,159
845,Michail,Help Desk Technician,49.0261841,1.1518478,FR,152,OK,76
846,Abbey,Geological Engineer,50.3566891,3.5246977,FR,224,OK,227
847,Dulcie,Legal Assistant,41.6543565,0.6251541,ES,132,OK,264
848,Fletcher,Automation Specialist III,43.5418913,7.036238900000002,FR,218,OK,122
849,Vanny,Account Executive,50.398362,1.5608271,FR,177,OK,247
850,Orren,Compensation Analyst,43.4931556,5.3698187000000015,FR,273,OK,137
851,Jewell,Geologist IV,43.1286974,6.1356499000000015,FR,140,OK,90
852,Joel,Legal Assistant,48.8706152,2.2289339,FR,268,OK,23
853,Flossy,GIS Technical Architect,49.1931313,-0.3907558,FR,43,OK,192
854,Yank,Payment Adjustment Coordinator,47.22653070000001,2.0598182,FR,115,OK,199
855,Charlie,Senior Editor,49.4263976,2.0887457,FR,47,OK,205
856,Alessandra,Payment Adjustment Coordinator,49.89053679999999,2.3081396,FR,286,OK,247
857,Abigail,Web Designer II,44.2642895,5.940651,FR,58,OK,77
858,Ethan,Mechanical Systems Engineer,48.2678882,2.7122802000000004,FR,9,OK,95
859,Jessika,Environmental Tech,43.7058177,2.1365748,FR,269,OK,177
860,Merralee,Account Coordinator,46.571039,3.325957,FR,276,OK,29
861,Drake,Environmental Specialist,48.7803815,2.4549884,FR,55,OK,72
862,Aileen,Budget/Accounting Analyst II,48.4990903,7.3118634999999985,FR,17,OK,32
863,Salvidor,Analyst Programmer,43.0429124,1.9038837,FR,8,OK,220
864,Athene,General Manager,42.0096857,-4.5288016,ES,17,OK,271
865,Werner,Business Systems Development Analyst,46.7152613,-1.4517985,FR,112,OK,226
866,Gregoire,VP Sales,48.9105576,2.3645084,FR,51,OK,134
867,Rickie,Project Manager,50.7022235,3.1685214,FR,220,OK,142
868,Caspar,Research Assistant I,43.7786945,3.7264439,FR,81,OK,237
869,Alene,Teacher,48.89594870000001,2.2679278,FR,275,OK,14
870,Brenn,Nuclear Power Engineer,48.9318625,2.4943891,FR,173,OK,277
871,Colin,GIS Technical Architect,48.403405,7.456782,FR,43,OK,32
872,Gasper,GIS Technical Architect,43.6218385,3.8403455,FR,33,OK,38
873,Cherie,Desktop Support Technician,43.7441795,2.5119990000000003,FR,281,OK,20
874,Brynne,Food Chemist,48.1079676,-1.5212701000000002,FR,59,OK,59
875,Fidel,Help Desk Operator,49.1931313,-0.3907558,FR,135,OK,192
876,Pasquale,VP Quality Control,49.0337974,2.0875699,FR,221,OK,66
877,Emogene,Office Assistant III,49.9772098,1.6928443,FR,199,OK,205
878,Lilias,Database Administrator III,49.476996,0.1639479,FR,180,OK,35
879,Alanah,Research Nurse,43.3011387,-0.3861522,FR,232,OK,265
880,Lavinie,Electrical Engineer,47.34103220000001,1.1586866000000002,FR,115,OK,25
881,Melany,Research Nurse,48.5267938,2.5096455,FR,238,OK,167
882,Lorilee,Developer III,48.690168,-1.3699309,FR,2,OK,59
883,Retha,Research Nurse,47.594843,1.3155028,FR,274,OK,160
884,Tedd,Structural Engineer,46.7457125,5.9081968,FR,88,OK,37
885,Dennie,Account Coordinator,48.8809869,2.2760839,FR,232,OK,14
886,Natty,Mechanical Systems Engineer,47.594843,1.3155028,FR,27,OK,160
887,Ramona,Software Engineer II,43.4945737,5.8978018,FR,33,OK,258
888,Sollie,Administrative Officer,48.8805451,2.1476836,FR,230,OK,104
889,Ron,Assistant Manager,38.0294026,-0.6867939000000001,ES,149,OK,164
890,Harcourt,Senior Financial Analyst,47.3362701,-1.5349069,FR,251,OK,296
891,Robenia,Accountant I,43.8447278,4.3520438,FR,167,OK,116
892,Byran,Senior Quality Engineer,42.8302933,-1.6299338,ES,117,OK,178
893,Netta,Social Worker,43.4750998,1.7205437,FR,11,OK,158
894,Carmelina,Programmer III,49.0285391,2.3236877,FR,142,OK,64
895,Freddie,Food Chemist,48.83488010000001,2.5070548,FR,136,OK,125
896,Gracie,Editor,49.4382375,1.0598119,FR,171,OK,63
897,James,Physical Therapy Assistant,45.521519,3.5276642,FR,38,OK,222
898,Gusta,Administrative Officer,43.7441795,2.5119990000000003,FR,238,OK,20
899,Suzy,Chief Design Engineer,46.571039,3.325957,FR,286,OK,29
900,Corinne,Administrative Assistant IV,43.4945737,5.8978018,FR,203,OK,258
901,Layla,Design Engineer,49.0194225,2.4613377,FR,273,OK,195
902,Gus,Human Resources Assistant I,43.66004,7.214992999999999,FR,241,OK,68
903,Sonny,Staff Scientist,48.0381485,-3.7612141,FR,137,OK,172
904,Corrie,Registered Nurse,48.8708001,2.166848,FR,59,OK,104
905,Hamid,Office Assistant II,43.4945737,5.8978018,FR,249,OK,258
906,Tom,GIS Technical Architect,48.7865463,2.054647,FR,76,OK,138
907,Sadie,Research Associate,49.333258,6.15176,FR,73,OK,44
908,Erhard,Environmental Tech,43.4945737,5.8978018,FR,246,OK,258
909,Frederic,Recruiter,47.38921420000001,0.6942885,FR,4,OK,7
910,Horton,Teacher,42.4556093,-8.632561099999998,ES,139,OK,196
911,Livy,Geologist I,48.73812589999999,2.3536083,FR,197,OK,254
912,Javier,Engineer III,47.287125,5.993932,FR,141,OK,215
913,Georgine,Senior Editor,43.609798,1.495596,FR,21,OK,132
914,Nelle,Civil Engineer,43.4945737,5.8978018,FR,105,OK,258
915,Rozamond,Librarian,48.5116663,-2.7393345,FR,73,OK,217
916,Karlan,Budget/Accounting Analyst I,48.8466523,2.2582125,FR,18,OK,114
917,Annabell,Compensation Analyst,49.0240609,2.4633136,FR,114,OK,121
918,Deina,Senior Quality Engineer,47.859986,-3.6006683,FR,180,OK,172
919,Stuart,Office Assistant II,48.305818,4.024099,FR,79,OK,251
920,Jeth,Research Nurse,43.0429124,1.9038837,FR,171,OK,220
921,Olenka,Sales Representative,47.9318074,5.2893597,FR,147,OK,56
922,Conn,Analog Circuit Design manager,48.9898219,1.7032903,FR,280,OK,175
923,Pammie,Product Engineer,,,FR,12, MISS_COORD,12
924,Sammy,Civil Engineer,44.0643415,1.1011089,FR,117,OK,198
925,Meriel,Recruiter,48.5267938,2.5096455,FR,272,OK,167
926,Peterus,Senior Quality Engineer,48.5116663,-2.7393345,FR,200,OK,217
927,Kristofor,Assistant Manager,46.1705063,1.8852108,FR,175,OK,261
928,Terri-jo,Help Desk Operator,48.5966574,7.774413900000001,FR,50,OK,185
929,Jere,Marketing Assistant,44.255137,5.262028,FR,160,OK,153
930,Lukas,Electrical Engineer,43.4945737,5.8978018,FR,159,OK,258
931,Lesli,VP Product Management,47.2550409,-1.5401497,FR,8,OK,296
932,Lauretta,Actuary,,,FR,257, MISS_COORD,257
933,Charlie,Quality Control Specialist,47.9544744,-2.0532343,FR,59,OK,59
934,Reinald,Recruiting Manager,48.7885683,2.3884283,FR,200,OK,274
935,Haily,Data Coordiator,48.2044234,5.942257,FR,11,OK,186
936,Lillian,Teacher,49.03353,2.0768291000000003,FR,258,OK,66
937,Layney,Office Assistant II,50.398362,1.5608271,FR,189,OK,247
938,Tyne,Administrative Officer,45.1934857,5.7218985,FR,181,OK,103
939,Verina,Structural Engineer,45.9018536,6.121072,FR,191,OK,300
940,Herrick,Recruiting Manager,48.759003,2.323941,FR,169,OK,254
941,Netti,Graphic Designer,43.7786945,3.7264439,FR,194,OK,237
942,Wyndham,Accountant I,43.8164948,4.8090237,FR,277,OK,223
943,Reynolds,Safety Technician II,46.068811,6.568907,FR,66,OK,159
944,Carma,Media Manager III,47.3036891,2.6981496,FR,185,OK,272
945,Udale,Nurse,47.2550409,-1.5401497,FR,198,OK,296
946,Ignazio,Director of Sales,46.1167,3.4167,FR,167,OK,235
947,Amelia,VP Accounting,44.1675867,2.0308233,FR,111,OK,140
948,Dione,Editor,48.8357169,2.2754517000000005,FR,259,OK,141
949,Meredeth,Speech Pathologist,44.1012172,3.0792713,FR,174,OK,20
950,Laurel,Senior Sales Associate,43.4945737,5.8978018,FR,256,OK,258
951,Lory,Desktop Support Technician,46.7457125,5.9081968,FR,115,OK,37
952,Fields,Community Outreach Specialist,43.0429124,1.9038837,FR,38,OK,220
953,Arnuad,Senior Cost Accountant,48.8693156,2.3501981,FR,63,OK,126
954,Kattie,Compensation Analyst,43.275207,1.9452714,FR,120,OK,213
955,Evey,Graphic Designer,47.9318074,5.2893597,FR,30,OK,56
956,Patsy,Account Coordinator,43.51908579999999,5.4431946,FR,159,OK,137
957,Ware,Database Administrator IV,43.8317876,4.3686291,FR,51,OK,116
958,Jessamine,Account Representative IV,49.50488720000001,5.694475700000001,FR,175,OK,44
959,Dianne,Systems Administrator I,43.6943099,2.0376775,FR,138,OK,177
960,Ignacius,Physical Therapy Assistant,47.8225694,0.3908219,FR,122,OK,148
961,Kristan,Graphic Designer,43.704612,7.261933,FR,237,OK,68
962,Sandi,Actuary,47.613861,6.785553,FR,26,OK,215
963,Lilian,Social Worker,48.8693156,2.3501981,FR,83,OK,126
964,Marilin,Automation Specialist III,48.7700185,2.3508225,FR,48,OK,161
965,Arda,Registered Nurse,50.1015135,1.8573006,FR,296,OK,247
966,Gaylor,Accountant III,48.529165,-2.7586364,FR,27,OK,217
967,Tommy,Research Assistant IV,44.7016194,4.5805038,FR,269,OK,173
968,Karol,Programmer IV,48.9875598,2.2971584,FR,243,OK,64
969,Cristionna,VP Marketing,48.830394,2.2372822999999995,FR,294,OK,114
970,Vivi,Analog Circuit Design manager,47.407461,-1.18752,FR,279,OK,166
971,Sada,Graphic Designer,48.890054,2.2372792,FR,175,OK,23
972,Magdalen,Financial Advisor,49.0096906,2.5479245,FR,184,OK,287
973,Garnet,VP Marketing,50.5429237,3.086469,FR,225,OK,70
974,Raven,Community Outreach Specialist,47.859986,-3.6006683,FR,52,OK,172
975,Arvy,Financial Analyst,42.5944931,-5.6195112,ES,263,OK,143
976,Holli,Web Developer IV,40.4304536,-3.7105118,ES,223,OK,271
977,Kenn,Account Representative II,48.892701,2.233089,FR,8,OK,174
978,Barty,Electrical Engineer,47.2154159,5.9471867,FR,107,OK,215
979,Budd,Administrative Assistant I,47.99561729999999,0.1924459,FR,104,OK,284
980,Elyssa,Geologist II,43.9770581,4.8762265,FR,135,OK,234
981,Rockie,Automation Specialist II,48.890054,2.2372792,FR,45,OK,23
982,Jaquelyn,Cost Accountant,38.0294026,-0.6867939000000001,ES,82,OK,164
983,Nicki,Financial Analyst,43.1283145,5.9294606,FR,160,OK,90
984,Jilleen,Web Designer I,43.0429124,1.9038837,FR,101,OK,220
985,Astra,Database Administrator I,49.189451,-0.8049350000000001,FR,283,OK,2
986,Dennie,Computer Systems Analyst IV,44.346784,5.8855505,FR,298,OK,153
987,Mack,Graphic Designer,46.5838069,0.3350126,FR,221,OK,243
988,Lilli,Software Test Engineer III,49.2095093,2.5814197,FR,111,OK,121
989,Collen,Professor,45.638468,0.129895,FR,206,OK,19
990,Ive,Programmer I,42.9782326,-7.5626411,ES,102,OK,107
991,Geralda,Human Resources Assistant III,48.8693156,2.3501981,FR,198,OK,126
992,Chrisse,Senior Editor,42.1294151,-0.3960275,ES,78,OK,286
993,Jedd,Computer Systems Analyst I,48.747518,4.700132900000002,FR,147,OK,251
994,Barnabas,Tax Accountant,45.052484,4.8398662,FR,296,OK,11
995,Wilton,Technical Writer,49.0194225,2.4613377,FR,225,OK,195
996,Merline,VP Sales,43.4945737,5.8978018,FR,108,OK,258
997,Hy,Account Executive,43.6777677,7.1492431,FR,274,OK,68
998,Anton,VP Marketing,47.2215999,5.9675962999999985,FR,16,OK,215
999,Karrah,Food Chemist,47.3036891,2.6981496,FR,160,OK,272
1000,Winnifred,Administrative Officer,48.6511908,6.481599,FR,53,OK,231
